{"jsonInfoScrapping":[{"type":2,"id":33931283,"urlname":"GDG-Herat","status":"Active","city":"Herat","country":"Afghanistan","name":"GDG Herat","lon":62.18000030517578,"lat":34.349998474121094},{"type":2,"id":33104127,"urlname":"GDG-Balkh","status":"Active","city":"Balkh","country":"Afghanistan","name":"GDG Balkh","lon":66.9000015258789,"lat":36.75},{"type":2,"id":33564258,"urlname":"gdgkandahar","status":"Active","city":"Qandahar","country":"Afghanistan","name":"GDG Kandahar","lon":65.69000244140625,"lat":31.610000610351562},{"type":2,"id":27756179,"urlname":"GDG-Kabul","status":"Active","city":"Kabul","country":"Afghanistan","name":"GDG Kabul","lon":69.16999816894531,"lat":34.529998779296875},{"type":2,"id":31537534,"urlname":"meetup-group-OsbJUyFm","status":"Active","city":"Tiranë","country":"Albania","name":"GDG Tirana","lon":19.81999969482422,"lat":41.33000183105469},{"type":2,"id":23701394,"urlname":"GDG-Tlemcen","status":"Active","city":"Tilimsan","country":"Algeria","name":"GDG Tlemcen","lon":-1.3200000524520874,"lat":34.88999938964844},{"type":2,"id":31305414,"urlname":"GDG-Naama","status":"Active","city":"Naama","country":"Algeria","name":"GDG-Naama","lon":-0.3199999928474426,"lat":33.27000045776367},{"type":2,"id":30774988,"urlname":"GDG-Saida","status":"Active","city":"Sayda'","country":"Algeria","name":"GDG Saida","lon":0.14000000059604645,"lat":34.84000015258789},{"type":2,"id":33197364,"urlname":"GDG-Grand-Mascara","status":"Active","city":"Muaskar","country":"Algeria","name":"GDG Grand Mascara","lon":0.14000000059604645,"lat":35.400001525878906},{"type":2,"id":31356213,"urlname":"GDG-mostaghanem","status":"Active","city":"Mustaghanam","country":"Algeria","name":"GDG Mostaganem","lon":0.09000000357627869,"lat":35.939998626708984},{"type":2,"id":31925452,"urlname":"gdg-elbayadh","status":"Active","city":"al-Bayadh","country":"Algeria","name":"gdg-elbayadh","lon":1.0099999904632568,"lat":33.689998626708984},{"type":2,"id":26236832,"urlname":"GDG-Tiaret","status":"Active","city":"Tiyarat","country":"Algeria","name":"GDG Tiaret","lon":1.3200000524520874,"lat":35.380001068115234},{"type":2,"id":23675562,"urlname":"GDG-Tipaza","status":"Active","city":"Tipaza","country":"Algeria","name":"GDG Tipaza","lon":2.4800000190734863,"lat":36.560001373291016},{"type":2,"id":31306598,"urlname":"gdg-medea","status":"Active","city":"Midyah","country":"Algeria","name":"GDG-Medea","lon":2.7699999809265137,"lat":36.27000045776367},{"type":2,"id":24258486,"urlname":"GDG-Les-Rosiers","status":"Active","city":"Blida","country":"Algeria","name":"GDG Les Rosiers","lon":2.8299999237060547,"lat":36.47999954223633},{"type":2,"id":24343511,"urlname":"GDG-Algiers","status":"Active","city":"al-Jaza´ir","country":"Algeria","name":"GDG Algiers","lon":3.0399999618530273,"lat":36.77000045776367},{"type":2,"id":26345817,"urlname":"GDG-Ghardaia","status":"Active","city":"Ghardayah","country":"Algeria","name":"GDG Ghardaia","lon":3.6700000762939453,"lat":32.4900016784668},{"type":2,"id":23413292,"urlname":"GDG-Tizi-Ouzou","status":"Active","city":"Tizi Ouzou","country":"Algeria","name":"GDG Tizi Ouzou","lon":4.050000190734863,"lat":36.720001220703125},{"type":2,"id":23787594,"urlname":"GDG-Msila","status":"Active","city":"Masilah","country":"Algeria","name":"GDG M'sila","lon":4.539999961853027,"lat":35.709999084472656},{"type":2,"id":30899426,"urlname":"GDG-BBA","status":"Active","city":"Burj Bu Arririj","country":"Algeria","name":"GDG Bordj Bou-Arréridj","lon":4.630000114440918,"lat":36.060001373291016},{"type":2,"id":31931224,"urlname":"setif-gdg","status":"Active","city":"Satif","country":"Algeria","name":"GDG-Setif","lon":5.409999847412109,"lat":36.189998626708984},{"type":2,"id":24809321,"urlname":"GDG-Constantine","status":"Active","city":"Qustantinah","country":"Algeria","name":"GDG Constantine","lon":6.599999904632568,"lat":36.36000061035156},{"type":2,"id":31299631,"urlname":"GDG-Eloued","status":"Active","city":"al-Wad","country":"Algeria","name":"GDG-Eloued","lon":6.860000133514404,"lat":33.369998931884766},{"type":2,"id":33595025,"urlname":"GDG-Cabinda","status":"Active","city":"Cabinda","country":"Angola","name":"GDG Cabinda","lon":12.1899995803833,"lat":-5.550000190734863},{"type":2,"id":28194172,"urlname":"GDG-Luanda","status":"Active","city":"Luanda","country":"Angola","name":"GDG Luanda","lon":13.239999771118164,"lat":-8.819999694824219},{"type":2,"id":31008080,"urlname":"GDG-Lubango","status":"Active","city":"Lubango","country":"Angola","name":"GDG Lubango","lon":13.489999771118164,"lat":-14.90999984741211},{"type":2,"id":32732786,"urlname":"GDG-Ramos-Mejia","status":"Active","city":"Buenos Aires","country":"Argentina","name":"GDG & WTM Ramos Mejía","lon":-58.369998931884766,"lat":-34.61000061035156},{"type":2,"id":23330787,"urlname":"gdgbsas","status":"Active","city":"Buenos Aires","country":"Argentina","name":"GDG & WTM Buenos Aires","lon":-58.369998931884766,"lat":-34.61000061035156},{"type":2,"id":19748269,"urlname":"gdg-wtm","status":"Active","city":"Buenos Aires","country":"Argentina","name":"GDG & WTM Río de La Plata","lon":-58.369998931884766,"lat":-34.61000061035156},{"type":2,"id":19760661,"urlname":"gdgneuquen","status":"Active","city":"Neuquén","country":"Argentina","name":"GDG Neuquén","lon":-68.05999755859375,"lat":-38.95000076293945},{"type":2,"id":31646564,"urlname":"GDG-Formosa","status":"Active","city":"Formosa","country":"Argentina","name":"GDG Formosa","lon":-58.18000030517578,"lat":-26.18000030517578},{"type":2,"id":31363010,"urlname":"GDG-CORDOBA-AR","status":"Active","city":"Córdoba","country":"Argentina","name":"GDG Córdoba, Argentina","lon":-64.19000244140625,"lat":-31.399999618530273},{"type":2,"id":32772219,"urlname":"GDGSantaFe","status":"Delisted","city":"Santa Fe","country":"Argentina","name":"GDG Santa Fe","lon":-60.689998626708984,"lat":-31.600000381469727},{"type":2,"id":26533702,"urlname":"GDGYerevan","status":"Active","city":"Yerevan","country":"Armenia","name":"GDG Yerevan","lon":44.52000045776367,"lat":40.16999816894531},{"type":2,"id":25415736,"urlname":"gdgcloudsydney","status":"Active","city":"Sydney","country":"Australia","name":"GDG Cloud - Sydney","lon":151.2100067138672,"lat":-33.869998931884766},{"type":2,"id":1955151,"urlname":"gdgsydney","status":"Active","city":"Sydney","country":"Australia","name":"GDG Sydney","lon":151.2100067138672,"lat":-33.869998931884766},{"type":2,"id":20706157,"urlname":"GDG-Brisbane-Cloud","status":"Active","city":"Brisbane","country":"Australia","name":"GDG Cloud Brisbane","lon":153.02000427246094,"lat":-27.459999084472656},{"type":2,"id":24469920,"urlname":"gdg-cloud-melbourne","status":"Active","city":"Melbourne","country":"Australia","name":"GDG Cloud Melbourne","lon":144.9600067138672,"lat":-37.810001373291016},{"type":2,"id":1781437,"urlname":"gdg-melbourne","status":"Active","city":"Melbourne","country":"Australia","name":"GDG Melbourne","lon":144.9600067138672,"lat":-37.810001373291016},{"type":2,"id":32715133,"urlname":"GDG-Adelaide","status":"Active","city":"Adelaide","country":"Australia","name":"GDG Adelaide","lon":138.60000610351562,"lat":-34.93000030517578},{"type":2,"id":33127594,"urlname":"GDG-Cloud-Perth","status":"Active","city":"Perth","country":"Australia","name":"GDG Cloud Perth","lon":115.83999633789062,"lat":-31.959999084472656},{"type":2,"id":30746184,"urlname":"gdgperth","status":"Active","city":"Perth","country":"Australia","name":"GDG Perth","lon":115.83999633789062,"lat":-31.959999084472656},{"type":2,"id":24921481,"urlname":"GDG-Innsbruck","status":"Active","city":"Innsbruck","country":"Austria","name":"GDG Innsbruck","lon":11.40999984741211,"lat":47.279998779296875},{"type":2,"id":18551743,"urlname":"GDG-Vienna","status":"Active","city":"Vienna","country":"Austria","name":"GDG Vienna","lon":16.3700008392334,"lat":48.220001220703125},{"type":2,"id":31684189,"urlname":"GDG-Baku","status":"Active","city":"Baku","country":"Azerbaijan","name":"GDG Baku","lon":49.86000061035156,"lat":40.38999938964844},{"type":2,"id":27195527,"urlname":"GDG-Manama","status":"Active","city":"Manama","country":"Bahrain","name":"GDG-Manama","lon":50.59000015258789,"lat":26.229999542236328},{"type":2,"id":25199080,"urlname":"GDGDhaka","status":"Active","city":"Dhaka","country":"Bangladesh","name":"GDG Dhaka","lon":90.38999938964844,"lat":23.700000762939453},{"type":2,"id":23723016,"urlname":"GDG-Sonargaon","status":"Active","city":"Dhaka","country":"Bangladesh","name":"GDG Sonargaon","lon":90.38999938964844,"lat":23.700000762939453},{"type":2,"id":25892259,"urlname":"GDG-Minsk","status":"Active","city":"Minsk","country":"Belarus","name":"GDG Minsk","lon":27.549999237060547,"lat":53.90999984741211},{"type":2,"id":27961430,"urlname":"GDG-Gomel","status":"Active","city":"Homjel'","country":"Belarus","name":"GDG Gomel","lon":30.989999771118164,"lat":52.43000030517578},{"type":2,"id":19345355,"urlname":"GDG-Cloud-Belgium","status":"Active","city":"Brussels","country":"Belgium","name":"GDG Cloud - Belgium","lon":4.329999923706055,"lat":50.83000183105469},{"type":2,"id":17172352,"urlname":"gdg-brussels","status":"Active","city":"Brussels","country":"Belgium","name":"GDG Brussels","lon":4.329999923706055,"lat":50.83000183105469},{"type":2,"id":23418846,"urlname":"GDG-Abomey-Calavi","status":"Active","city":"Abomey","country":"Benin","name":"GDG Abomey-Calavi","lon":1.9900000095367432,"lat":7.190000057220459},{"type":2,"id":23420333,"urlname":"GDG-Cotonou","status":"Active","city":"Cotonou","country":"Benin","name":"GDG Cotonou","lon":2.440000057220459,"lat":6.360000133514404},{"type":2,"id":27614731,"urlname":"GDG-Parakou","status":"Active","city":"Parakou","country":"Benin","name":"GDG Parakou","lon":2.619999885559082,"lat":9.34000015258789},{"type":2,"id":27615296,"urlname":"GDG-Porto-Novo","status":"Active","city":"Porto Novo","country":"Benin","name":"GDG Porto-Novo","lon":2.630000114440918,"lat":6.480000019073486},{"type":2,"id":33715295,"urlname":"GDG-Thimphu","status":"Active","city":"Thimphu","country":"Bhutan","name":"GDG Thimphu","lon":89.69999694824219,"lat":27.479999542236328},{"type":2,"id":33608573,"urlname":"GDG-Cloud-El-Alto","status":"Active","city":"El Alto","country":"Bolivia","name":"GDG Cloud El Alto","lon":-68.16999816894531,"lat":-16.5},{"type":2,"id":28365998,"urlname":"GDG-El-Alto","status":"Active","city":"El Alto","country":"Bolivia","name":"GDG El Alto","lon":-68.16999816894531,"lat":-16.5},{"type":2,"id":30489351,"urlname":"GDG-Cloud-La-Paz","status":"Active","city":"La Paz","country":"Bolivia","name":"GDG Cloud La Paz","lon":-68.1500015258789,"lat":-16.5},{"type":2,"id":24070829,"urlname":"GDG-La-Paz","status":"Active","city":"La Paz","country":"Bolivia","name":"GDG La Paz","lon":-68.1500015258789,"lat":-16.5},{"type":2,"id":23451400,"urlname":"GDGAndroidBolivia","status":"Active","city":"La Paz","country":"Bolivia","name":"GDG Android Bolivia","lon":-68.1500015258789,"lat":-16.5},{"type":2,"id":19927304,"urlname":"GDGCochabamba","status":"Active","city":"Cochabamba","country":"Bolivia","name":"GDG Cochabamba","lon":-66.16999816894531,"lat":-17.3799991607666},{"type":2,"id":23332776,"urlname":"GDGSantaCruz","status":"Active","city":"Santa Cruz","country":"Bolivia","name":"GDG Santa Cruz","lon":-63.209999084472656,"lat":-17.770000457763672},{"type":2,"id":28103899,"urlname":"GDG-Sucre","status":"Active","city":"Sucre","country":"Bolivia","name":"GDG Sucre","lon":-65.26000213623047,"lat":-19.059999465942383},{"type":2,"id":23332948,"urlname":"GDG-Tarija","status":"Active","city":"Tarija","country":"Bolivia","name":"GDG Tarija","lon":-64.73999786376953,"lat":-21.530000686645508},{"type":2,"id":23406989,"urlname":"GDG-Gaborone","status":"Active","city":"Gaborone","country":"Botswana","name":"GDG Gaborone","lon":25.90999984741211,"lat":-24.649999618530273},{"type":2,"id":26454262,"urlname":"GDG-JM","status":"Delisted","city":"João Monlevade","country":"Brazil","name":"GDG João Monlevade","lon":-43.15999984741211,"lat":-19.829999923706055},{"type":2,"id":21877109,"urlname":"gdgsjc","status":"Active","city":"São José dos Campos","country":"Brazil","name":"GDG São José dos Campos","lon":-45.880001068115234,"lat":-23.200000762939453},{"type":2,"id":32651125,"urlname":"GDG-Ipatinga","status":"Active","city":"Ipatinga","country":"Brazil","name":"GDG Ipatinga","lon":-42.52000045776367,"lat":-19.479999542236328},{"type":2,"id":32748671,"urlname":"GDG-Cloud-Santos","status":"Active","city":"Santos","country":"Brazil","name":"GDG Cloud Santos","lon":-46.33000183105469,"lat":-23.950000762939453},{"type":2,"id":16536482,"urlname":"gdg-salvador","status":"Active","city":"Salvador","country":"Brazil","name":"GDG Salvador","lon":-38.5,"lat":-12.970000267028809},{"type":2,"id":24078291,"urlname":"GDG-Lauro-de-Freitas","status":"Active","city":"Lauro de Freitas","country":"Brazil","name":"GDG Lauro de Freitas","lon":-38.349998474121094,"lat":-12.90999984741211},{"type":2,"id":32733181,"urlname":"GDG-Garanhuns","status":"Active","city":"Garanhuns","country":"Brazil","name":"GDG Garanhuns","lon":-36.5,"lat":-8.890000343322754},{"type":2,"id":32807799,"urlname":"meetup-group-bGOQyNHx","status":"Active","city":"Campina Grande","country":"Brazil","name":"GDG Campina Grande","lon":-35.880001068115234,"lat":-7.230000019073486},{"type":2,"id":31225794,"urlname":"GDG-Volta-Redonda","status":"Active","city":"Volta Redonda","country":"Brazil","name":"GDG Volta Redonda","lon":-44.119998931884766,"lat":-22.510000228881836},{"type":2,"id":24687134,"urlname":"GDG-Arapiraca","status":"Active","city":"Arapiraca","country":"Brazil","name":"GDG Arapiraca","lon":-36.66999816894531,"lat":-9.75},{"type":2,"id":24158127,"urlname":"gdgaracaju","status":"Active","city":"Aracaju","country":"Brazil","name":"GDG Aracaju","lon":-37.06999969482422,"lat":-10.90999984741211},{"type":2,"id":25277619,"urlname":"gdg-juiz-de-fora","status":"Active","city":"Juiz de Fora","country":"Brazil","name":"GDG Juiz de Fora","lon":-43.36000061035156,"lat":-21.75},{"type":2,"id":14774302,"urlname":"GDGSerraGaucha","status":"Active","city":"Bento Gonçalves","country":"Brazil","name":"GDG Serra Gaúcha","lon":-51.52000045776367,"lat":-29.170000076293945},{"type":2,"id":32718321,"urlname":"GDG-Lajeado","status":"Active","city":"Lajeado","country":"Brazil","name":"GDG Lajeado","lon":-51.959999084472656,"lat":-29.450000762939453},{"type":2,"id":14682412,"urlname":"GDG-Natal","status":"Active","city":"Natal","country":"Brazil","name":"GDG Natal","lon":-35.220001220703125,"lat":-5.800000190734863},{"type":2,"id":19168235,"urlname":"gdg-vassouras","status":"Active","city":"Vassouras","country":"Brazil","name":"GDG Vassouras","lon":-43.66999816894531,"lat":-22.399999618530273},{"type":2,"id":32197174,"urlname":"GDG-Cataguases","status":"Active","city":"Cataguases","country":"Brazil","name":"GDG Cataguases","lon":-42.70000076293945,"lat":-21.389999389648438},{"type":2,"id":19583775,"urlname":"GDG-Tres-Rios","status":"Active","city":"Tres Ríos","country":"Brazil","name":"GDG Três Rios","lon":-43.209999084472656,"lat":-22.110000610351562},{"type":2,"id":20304556,"urlname":"GDGFloripa","status":"Active","city":"Florianópolis","country":"Brazil","name":"GDG Floripa","lon":-48.540000915527344,"lat":-27.600000381469727},{"type":2,"id":26893701,"urlname":"GDGPetropolis","status":"Active","city":"Petrópolis","country":"Brazil","name":"GDG Petrópolis","lon":-43.20000076293945,"lat":-22.510000228881836},{"type":2,"id":33644417,"urlname":"GDG-Cloud-Campo-Bom","status":"Active","city":"Campo Bom","country":"Brazil","name":"GDG Cloud Campo Bom","lon":-51.09000015258789,"lat":-29.579999923706055},{"type":2,"id":19182699,"urlname":"GDG-Maceio","status":"Active","city":"Maceió","country":"Brazil","name":"GDG Maceió","lon":-35.75,"lat":-9.649999618530273},{"type":2,"id":25696704,"urlname":"Meetup-de-Desenvolvimento-de-Software-Rio-de-Janeiro","status":"Active","city":"Rio de Janeiro","country":"Brazil","name":"GDG  Paulo de Frontin","lon":-43.20000076293945,"lat":-22.90999984741211},{"type":2,"id":22079240,"urlname":"GDGRioDeJaneiro","status":"Active","city":"Rio de Janeiro","country":"Brazil","name":"GDG Rio de Janeiro","lon":-43.20000076293945,"lat":-22.90999984741211},{"type":2,"id":15336882,"urlname":"gdgjoaopessoa","status":"Active","city":"João Pessoa","country":"Brazil","name":"GDG João Pessoa","lon":-34.86000061035156,"lat":-7.119999885559082},{"type":2,"id":15336622,"urlname":"GDG-Porto-Alegre","status":"Active","city":"Porto Alegre","country":"Brazil","name":"GDG Porto Alegre","lon":-51.220001220703125,"lat":-30.040000915527344},{"type":2,"id":16058972,"urlname":"GDG-Grande-Vitoria","status":"Active","city":"Vitória","country":"Brazil","name":"GDG Grande Vitória","lon":-40.310001373291016,"lat":-20.309999465942383},{"type":2,"id":28138870,"urlname":"GDG-Pelotas","status":"Active","city":"Pelotas","country":"Brazil","name":"GDG Pelotas","lon":-52.34000015258789,"lat":-31.760000228881836},{"type":2,"id":33786981,"urlname":"GDG-Colinas-do-Tocantins","status":"Active","city":"Colinas do Tocantins","country":"Brazil","name":"GDG Colinas do Tocantins","lon":0,"lat":0},{"type":2,"id":15336482,"urlname":"GDG-Manaus","status":"Active","city":"Manaus","country":"Brazil","name":"GDG Manaus","lon":-60.02000045776367,"lat":-3.119999885559082},{"type":2,"id":26847031,"urlname":"GDG-Sinop","status":"Active","city":"Sinop","country":"Brazil","name":"GDG Sinop","lon":-55.459999084472656,"lat":-11.850000381469727},{"type":2,"id":23397945,"urlname":"gdgbelemio","status":"Active","city":"Belém","country":"Brazil","name":"GDG Belém","lon":-48.5,"lat":-1.4600000381469727},{"type":2,"id":32735165,"urlname":"GDG-Maraba","status":"Delisted","city":"Marabá","country":"Brazil","name":"GDG Marabá","lon":-49.130001068115234,"lat":-5.340000152587891},{"type":2,"id":22068063,"urlname":"gdgcuiaba","status":"Active","city":"Cuiabá","country":"Brazil","name":"GDG Cuiabá","lon":-56.09000015258789,"lat":-15.609999656677246},{"type":2,"id":24184350,"urlname":"GDG-Imperatriz","status":"Active","city":"Imperatriz","country":"Brazil","name":"GDG Imperatriz","lon":-47.4900016784668,"lat":-5.519999980926514},{"type":2,"id":23344369,"urlname":"GDG-Sao-Luis","status":"Active","city":"São Luís","country":"Brazil","name":"GDG São Luis","lon":-44.29999923706055,"lat":-2.5},{"type":2,"id":32673782,"urlname":"GDG-Jatai","status":"Active","city":"Jataí","country":"Brazil","name":"GDG Jataí","lon":-51.75,"lat":-17.8799991607666},{"type":2,"id":19122011,"urlname":"gdgrioverde","status":"Active","city":"Río Verde","country":"Brazil","name":"GDG Rio Verde","lon":-50.93000030517578,"lat":-17.81999969482422},{"type":2,"id":15336052,"urlname":"GDG-Goiania","status":"Active","city":"Goiania","country":"Brazil","name":"GDG Goiânia","lon":-49.2599983215332,"lat":-16.719999313354492},{"type":2,"id":24156927,"urlname":"GDG-Brasilia","status":"Active","city":"Brasília","country":"Brazil","name":"GDG Brasília","lon":-47.90999984741211,"lat":-15.779999732971191},{"type":2,"id":24033198,"urlname":"GDG-Itumbiara","status":"Active","city":"Itumbiara","country":"Brazil","name":"GDG Itumbiara","lon":-49.209999084472656,"lat":-18.399999618530273},{"type":2,"id":25841459,"urlname":"GDG-Uberlandia","status":"Active","city":"Uberlandia","country":"Brazil","name":"GDG Uberlândia","lon":-48.279998779296875,"lat":-18.899999618530273},{"type":2,"id":28727505,"urlname":"GDG-Presidente-Prudente","status":"Active","city":"Presidente Prudente","country":"Brazil","name":"GDG Presidente Prudente","lon":-51.38999938964844,"lat":-22.1200008392334},{"type":2,"id":23579000,"urlname":"GDG-Maringa","status":"Delisted","city":"Maringá","country":"Brazil","name":"GDG Maringá","lon":-51.93000030517578,"lat":-23.40999984741211},{"type":2,"id":20651366,"urlname":"GDG-Toledo-PR","status":"Active","city":"Toledo","country":"Brazil","name":"GDG Toledo-PR","lon":-53.7400016784668,"lat":-24.729999542236328},{"type":2,"id":23661995,"urlname":"meetupgdguberaba","status":"Active","city":"Uberaba","country":"Brazil","name":"Meetup GDG Uberaba","lon":-47.939998626708984,"lat":-19.760000228881836},{"type":2,"id":23469710,"urlname":"GDG-Foz-do-Iguacu","status":"Active","city":"Foz do Iguaçu","country":"Brazil","name":"GDG Foz do Iguaçu","lon":-54.58000183105469,"lat":-25.549999237060547},{"type":2,"id":20336481,"urlname":"GDG-Cascavel","status":"Active","city":"Cascavel","country":"Brazil","name":"GDG Cascavel","lon":-53.459999084472656,"lat":-24.959999084472656},{"type":2,"id":27187428,"urlname":"GDG-Londrina","status":"Active","city":"Londrina","country":"Brazil","name":"GDG Londrina","lon":-51.18000030517578,"lat":-23.299999237060547},{"type":2,"id":32875484,"urlname":"meetup-group-UVsEfNEz","status":"Active","city":"Cornélio Procópio","country":"Brazil","name":"GDG Cornélio Procópio","lon":-50.650001525878906,"lat":-23.18000030517578},{"type":2,"id":23363286,"urlname":"gdgfortaleza","status":"Active","city":"Fortaleza","country":"Brazil","name":"GDG Fortaleza","lon":-38.59000015258789,"lat":-3.7799999713897705},{"type":2,"id":16415722,"urlname":"gdgribeirao","status":"Active","city":"Ribeirão Preto","country":"Brazil","name":"GDG Ribeirão Preto","lon":-47.79999923706055,"lat":-21.170000076293945},{"type":2,"id":25603212,"urlname":"gdgararaquara","status":"Active","city":"Araraquara","country":"Brazil","name":"GDG ARARAQUARA","lon":-48.130001068115234,"lat":-21.75},{"type":2,"id":18420120,"urlname":"GDG-Sao-Joao-da-Boa-Vista","status":"Active","city":"São João da Boa Vista","country":"Brazil","name":"GDG São João da Boa Vista","lon":-46.790000915527344,"lat":-21.979999542236328},{"type":2,"id":32728524,"urlname":"gdgfrederico","status":"Delisted","city":"Frederico Westphalen","country":"Brazil","name":"GDG Frederico Westphalen","lon":-53.40999984741211,"lat":-27.350000381469727},{"type":2,"id":25574055,"urlname":"gdgmogiguacu","status":"Active","city":"Mogi Guaçu","country":"Brazil","name":"GDG Mogi Guaçu","lon":-46.95000076293945,"lat":-22.3700008392334},{"type":2,"id":26009673,"urlname":"GDG-Divinopolis","status":"Delisted","city":"Divinópolis","country":"Brazil","name":"GDG Divinópolis","lon":-44.900001525878906,"lat":-20.149999618530273},{"type":2,"id":13314462,"urlname":"gdgcampinas","status":"Active","city":"Campinas","country":"Brazil","name":"GDG Campinas","lon":-47.08000183105469,"lat":-22.90999984741211},{"type":2,"id":33718475,"urlname":"meetup-group-LBvrzFFc","status":"Active","city":"Itu","country":"Brazil","name":"GDG Itu","lon":-47.29999923706055,"lat":-23.260000228881836},{"type":2,"id":14964872,"urlname":"GDG-Sorocaba","status":"Active","city":"Sorocaba","country":"Brazil","name":"GDG Sorocaba","lon":-47.470001220703125,"lat":-23.489999771118164},{"type":2,"id":25876871,"urlname":"GDG-Varginha","status":"Active","city":"Varginha","country":"Brazil","name":"GDG Varginha","lon":-45.43000030517578,"lat":-21.559999465942383},{"type":2,"id":17205732,"urlname":"GDG-BH","status":"Active","city":"Belo Horizonte","country":"Brazil","name":"GDG Belo Horizonte","lon":-43.939998626708984,"lat":-19.920000076293945},{"type":2,"id":24686774,"urlname":"GDG-Lavras","status":"Active","city":"Lavras","country":"Brazil","name":"GDG Lavras","lon":-45.0099983215332,"lat":-21.25},{"type":2,"id":18724739,"urlname":"gdgcuritiba","status":"Active","city":"Curitiba","country":"Brazil","name":"GDG Curitiba","lon":-49.290000915527344,"lat":-25.420000076293945},{"type":2,"id":23344499,"urlname":"gdgfsa","status":"Active","city":"Feira de Santana","country":"Brazil","name":"GDG Feira de Santana","lon":-38.970001220703125,"lat":-12.25},{"type":2,"id":8562442,"urlname":"GDG-SP","status":"Active","city":"São Paulo","country":"Brazil","name":"GDG-SP","lon":-46.630001068115234,"lat":-23.530000686645508},{"type":2,"id":14638992,"urlname":"GDG-ABC","status":"Active","city":"Santo André","country":"Brazil","name":"GDG ABC","lon":-46.529998779296875,"lat":-23.649999618530273},{"type":2,"id":31281615,"urlname":"GDG-Brunei-Darussalam","status":"Active","city":"Bandar Seri Begawan","country":"Brunei","name":"GDG Brunei Darussalam","lon":114.94999694824219,"lat":4.929999828338623},{"type":2,"id":23392491,"urlname":"GDG-Sofia","status":"Active","city":"Sofia","country":"Bulgaria","name":"GDG Sofia","lon":23.309999465942383,"lat":42.689998626708984},{"type":2,"id":23403019,"urlname":"Meetup-GDG-Ouaga","status":"Active","city":"Ouagadougou","country":"Burkina Faso","name":"GDG Ouaga","lon":-1.5299999713897705,"lat":12.369999885559082},{"type":2,"id":33205782,"urlname":"GDG-Bujumbura","status":"Active","city":"Bujumbura","country":"Burundi","name":"GDG Bujumbura","lon":29.350000381469727,"lat":-3.369999885559082},{"type":2,"id":23591072,"urlname":"GDG-Limbe","status":"Active","city":"Limbe","country":"Cameroon","name":"GDG Limbe","lon":9.199999809265137,"lat":4.019999980926514},{"type":2,"id":23438138,"urlname":"GDG-Buea","status":"Active","city":"Buea","country":"Cameroon","name":"GDG Buea","lon":9.229999542236328,"lat":4.159999847412109},{"type":2,"id":23404202,"urlname":"GDG-Douala","status":"Active","city":"Douala","country":"Cameroon","name":"GDG Douala","lon":9.710000038146973,"lat":4.059999942779541},{"type":2,"id":24749233,"urlname":"GDG-NKONGSAMBA","status":"Active","city":"Nkongsamba","country":"Cameroon","name":"GDG NKONGSAMBA","lon":9.9399995803833,"lat":4.960000038146973},{"type":2,"id":24871579,"urlname":"GDG-Bamenda","status":"Active","city":"Bamenda","country":"Cameroon","name":"GDG Bamenda","lon":10.149999618530273,"lat":5.960000038146973},{"type":2,"id":23400845,"urlname":"GDG-Bambili","status":"Active","city":"Bambili","country":"Cameroon","name":"GDG Bambili","lon":10.260000228881836,"lat":6.010000228881836},{"type":2,"id":27679175,"urlname":"GDG_Bandjoun","status":"Active","city":"Bandjoun","country":"Cameroon","name":"GDG Bandjoun","lon":10.420000076293945,"lat":5.369999885559082},{"type":2,"id":23402324,"urlname":"GDG-Bangangte","status":"Active","city":"Bangangte","country":"Cameroon","name":"GDG Bangangté","lon":10.510000228881836,"lat":5.150000095367432},{"type":2,"id":23399891,"urlname":"GDGFoumban","status":"Active","city":"Foumban","country":"Cameroon","name":"GDG Foumban","lon":10.899999618530273,"lat":5.730000019073486},{"type":2,"id":23409475,"urlname":"GDG-Ebolowa","status":"Active","city":"Ebolowa","country":"Cameroon","name":"GDG Ebolowa","lon":11.140000343322754,"lat":2.930000066757202},{"type":2,"id":23403123,"urlname":"GDG-Yaounde","status":"Active","city":"Yaoundé","country":"Cameroon","name":"GDG Yaoundé","lon":11.520000457763672,"lat":3.869999885559082},{"type":2,"id":23403330,"urlname":"GDG-Ndere","status":"Active","city":"Ngaoundéré","country":"Cameroon","name":"GDG Ndéré","lon":13.579999923706055,"lat":7.320000171661377},{"type":2,"id":23458256,"urlname":"GDG-Maroua","status":"Active","city":"Maroua","country":"Cameroon","name":"GDG Maroua","lon":14.329999923706055,"lat":10.579999923706055},{"type":2,"id":10711702,"urlname":"GDG-Waterloo","status":"Active","city":"Waterloo","country":"Canada","name":"GDG Waterloo","lon":-80.5199966430664,"lat":43.470001220703125},{"type":2,"id":1537167,"urlname":"GDG-Toronto","status":"Active","city":"Toronto","country":"Canada","name":"Google Developer Group - Toronto","lon":-79.37999725341797,"lat":43.65999984741211},{"type":2,"id":30577560,"urlname":"GDG-Cloud-Toronto","status":"Active","city":"Toronto","country":"Canada","name":"GDG Cloud Toronto - A Google Developer Group","lon":-79.38999938964844,"lat":43.65999984741211},{"type":2,"id":19584652,"urlname":"ToAndroidDev","status":"Active","city":"Toronto","country":"Canada","name":"GDG Toronto Android","lon":-79.38999938964844,"lat":43.66999816894531},{"type":2,"id":30810201,"urlname":"GDG-Mississauga","status":"Active","city":"Mississauga","country":"Canada","name":"GDG Mississauga","lon":-79.66000366210938,"lat":43.70000076293945},{"type":2,"id":28413146,"urlname":"GDG-Cloud-Ottawa","status":"Active","city":"Ottawa","country":"Canada","name":"GDG Cloud - Ottawa","lon":-75.69000244140625,"lat":45.45000076293945},{"type":2,"id":13635262,"urlname":"GDG-Montreal","status":"Active","city":"Montréal","country":"Canada","name":"GDG Montreal","lon":-73.5999984741211,"lat":45.529998779296875},{"type":2,"id":28412871,"urlname":"Google-Cloud-Platform-Meetup-Montreal","status":"Active","city":"Montréal","country":"Canada","name":"GDG Cloud - Montreal","lon":-73.5,"lat":45.650001525878906},{"type":2,"id":29461301,"urlname":"GDG-Halifax","status":"Active","city":"Halifax","country":"Canada","name":"GDG Halifax","lon":-63.56999969482422,"lat":44.63999938964844},{"type":2,"id":31109475,"urlname":"GDG-Fredericton-NB","status":"Active","city":"Fredericton","country":"Canada","name":"GDG Cloud Fredericton","lon":-66.62000274658203,"lat":45.91999816894531},{"type":2,"id":17437302,"urlname":"GDG-Sudbury","status":"Active","city":"Sudbury","country":"Canada","name":"Google Developer Group (Sudbury)","lon":-80.97000122070312,"lat":46.470001220703125},{"type":2,"id":33142471,"urlname":"GDG-Moncton","status":"Active","city":"Moncton","country":"Canada","name":"GDG Moncton","lon":-64.7300033569336,"lat":46.119998931884766},{"type":2,"id":32989127,"urlname":"GDG-Cloud-Sudbury","status":"Active","city":"Sudbury","country":"Canada","name":"GDG Cloud Sudbury","lon":-80.94999694824219,"lat":46.52000045776367},{"type":2,"id":30003004,"urlname":"GDG-Charlottetown","status":"Delisted","city":"Charlottetown","country":"Canada","name":"GDG Charlottetown","lon":-63.150001525878906,"lat":46.2400016784668},{"type":2,"id":32423392,"urlname":"GDG-Cloud-Thunder-Bay","status":"Active","city":"Thunder Bay","country":"Canada","name":"GDG Cloud Thunder Bay","lon":-89.22000122070312,"lat":48.45000076293945},{"type":2,"id":29024922,"urlname":"GDG-Winnipeg","status":"Active","city":"Winnipeg","country":"Canada","name":"GDG Winnipeg","lon":-97,"lat":49.88999938964844},{"type":2,"id":22102008,"urlname":"gdgyyc","status":"Active","city":"Calgary","country":"Canada","name":"GDG Cloud Calgary","lon":-114.05999755859375,"lat":51.040000915527344},{"type":2,"id":32094603,"urlname":"GDG-Cloud-Edmonton","status":"Active","city":"Edmonton","country":"Canada","name":"GDG Cloud Edmonton","lon":-113.44000244140625,"lat":53.599998474121094},{"type":2,"id":30675892,"urlname":"GDG-St-Albert","status":"Active","city":"St. Albert","country":"Canada","name":"GDG St. Albert","lon":-113.62999725341797,"lat":53.63999938964844},{"type":2,"id":31990416,"urlname":"GDG-Victoria","status":"Active","city":"Victoria","country":"Canada","name":"GDG Victoria","lon":-123.29000091552734,"lat":48.459999084472656},{"type":2,"id":28984387,"urlname":"GDG-Surrey","status":"Active","city":"Surrey","country":"Canada","name":"Google Developers Group Surrey","lon":-122.80999755859375,"lat":49.18000030517578},{"type":2,"id":29476847,"urlname":"gdg-burnaby","status":"Active","city":"Burnaby","country":"Canada","name":"Google Developers Group- Burnaby","lon":-122.86000061035156,"lat":49.2599983215332},{"type":2,"id":32750935,"urlname":"Google-Developers-Group-GDG-Richmond","status":"Active","city":"Richmond","country":"Canada","name":"Google Developers Group (GDG) - Richmond","lon":-123.05000305175781,"lat":49.18000030517578},{"type":2,"id":24502525,"urlname":"GDGCloudVancouver","status":"Active","city":"Vancouver","country":"Canada","name":"Google Developers Group - Cloud Vancouver","lon":-123.12000274658203,"lat":49.290000915527344},{"type":2,"id":28810459,"urlname":"GDG-Windsor","status":"Active","city":"Windsor","country":"Canada","name":"GDG Windsor","lon":-82.9000015258789,"lat":42.310001373291016},{"type":2,"id":28802411,"urlname":"Google-Cloud-GDG-Meeting","status":"Active","city":"London","country":"Canada","name":"GDG Cloud - London, ON","lon":-81.18000030517578,"lat":43.0099983215332},{"type":2,"id":31027416,"urlname":"GDG-Praia","status":"Active","city":"Praia","country":"Cape Verde","name":"GDG Praia","lon":-23.540000915527344,"lat":14.930000305175781},{"type":2,"id":33424519,"urlname":"GDG-NDjamena","status":"Active","city":"N'Djaména","country":"Chad","name":"GDG N'Djaména","lon":15.050000190734863,"lat":12.109999656677246},{"type":2,"id":32773765,"urlname":"gdgarica","status":"Active","city":"Arica","country":"Chile","name":"GDG Arica","lon":-70.30000305175781,"lat":-18.489999771118164},{"type":2,"id":23398814,"urlname":"GDG-Valparaiso","status":"Active","city":"Valparaíso","country":"Chile","name":"GDG Valparaíso","lon":-71.63999938964844,"lat":-33.040000915527344},{"type":2,"id":30535273,"urlname":"gdgcloudsantiago","status":"Active","city":"Santiago","country":"Chile","name":"GDG Cloud Santiago","lon":-70.63999938964844,"lat":-33.459999084472656},{"type":2,"id":19066189,"urlname":"gdg-santiago-chile","status":"Active","city":"Santiago","country":"Chile","name":"GDG Santiago de Chile","lon":-70.63999938964844,"lat":-33.459999084472656},{"type":2,"id":24421578,"urlname":"Changji-GDG","status":"Active","city":"Changji","country":"China","name":"Changji GDG","lon":87.31999969482422,"lat":44.02000045776367},{"type":2,"id":24220553,"urlname":"GDG-Urumuqi","status":"Active","city":"Urumqi","country":"China","name":"GDG Urumuqi","lon":87.58000183105469,"lat":43.79999923706055},{"type":2,"id":23597397,"urlname":"Zhangjiakou-GDG","status":"Active","city":"Zhangjiakou","country":"China","name":"Zhangjiakou GDG","lon":114.93000030517578,"lat":40.83000183105469},{"type":2,"id":23730510,"urlname":"GDG-Beijing","status":"Active","city":"Beijing","country":"China","name":"GDG Beijing","lon":116.4000015258789,"lat":39.93000030517578},{"type":2,"id":24421233,"urlname":"GDG-Tianjin","status":"Active","city":"Tianjin","country":"China","name":"GDG Tianjin","lon":117.19999694824219,"lat":39.130001068115234},{"type":2,"id":33180094,"urlname":"GDG-Shijiazhuang","status":"Active","city":"Shijiazhuang","country":"China","name":"GDG Shijiazhuang","lon":114.4800033569336,"lat":38.04999923706055},{"type":2,"id":23597073,"urlname":"Lanzhou-GDG","status":"Active","city":"Lanzhou","country":"China","name":"Lanzhou GDG","lon":103.68000030517578,"lat":36.04999923706055},{"type":2,"id":23597328,"urlname":"Suzhou-GDG","status":"Active","city":"Suzhou","country":"China","name":"GDG Suzhou","lon":117.18000030517578,"lat":34.27000045776367},{"type":2,"id":23680865,"urlname":"gdg-zhengzhou","status":"Active","city":"Zhengzhou","country":"China","name":"GDG Zhengzhou","lon":113.66999816894531,"lat":34.75},{"type":2,"id":23582830,"urlname":"GDG-Xian","status":"Active","city":"Xian","country":"China","name":"GDG Xian","lon":108.9000015258789,"lat":34.27000045776367},{"type":2,"id":24563003,"urlname":"Shanghai-GDG","status":"Active","city":"Shanghai","country":"China","name":"Google Developer Group - GDG Shanghai","lon":121.47000122070312,"lat":31.229999542236328},{"type":2,"id":24435551,"urlname":"Nanyang-GDG","status":"Active","city":"Nanyang","country":"China","name":"Nanyang GDG","lon":112.52999877929688,"lat":33},{"type":2,"id":23681305,"urlname":"Hefei-GDG","status":"Active","city":"Hefei","country":"China","name":"Hefei GDG","lon":117.27999877929688,"lat":31.850000381469727},{"type":2,"id":27910026,"urlname":"GDG-Cloud-Hangzhou","status":"Active","city":"Hangzhou","country":"China","name":"GDG Cloud Hangzhou","lon":120.16999816894531,"lat":30.25},{"type":2,"id":24421780,"urlname":"Hangzhou-GDG","status":"Active","city":"Hangzhou","country":"China","name":"Hangzhou GDG","lon":120.16999816894531,"lat":30.25},{"type":2,"id":23583214,"urlname":"GDG-Wuhan","status":"Active","city":"Wuhan","country":"China","name":"GDG Wuhan","lon":114.2699966430664,"lat":30.579999923706055},{"type":2,"id":33726689,"urlname":"GDG-Wenzhou","status":"Active","city":"Wenzhou","country":"China","name":"GDG Wenzhou","lon":120.6500015258789,"lat":28.020000457763672},{"type":2,"id":23662800,"urlname":"Chengdu-GDG","status":"Active","city":"Chengdu","country":"China","name":"Chengdu GDG","lon":104.06999969482422,"lat":30.670000076293945},{"type":2,"id":24421397,"urlname":"Chongqing-GDG","status":"Active","city":"Chongqing","country":"China","name":"Chongqing GDG","lon":106.58000183105469,"lat":29.56999969482422},{"type":2,"id":23596298,"urlname":"Fuzhou-GDG","status":"Active","city":"Fuzhou","country":"China","name":"Fuzhou GDG","lon":119.30000305175781,"lat":26.079999923706055},{"type":2,"id":23681039,"urlname":"Ganzhou-GDG","status":"Active","city":"Ganzhou","country":"China","name":"Ganzhou GDG","lon":114.93000030517578,"lat":25.950000762939453},{"type":2,"id":24563168,"urlname":"GDG-Xiamen","status":"Active","city":"Xiamen","country":"China","name":"GDG Xiamen","lon":118.08000183105469,"lat":24.450000762939453},{"type":2,"id":32473966,"urlname":"GDG-Dongguan","status":"Active","city":"Dongguan","country":"China","name":"GDG Dongguan","lon":113.7300033569336,"lat":23.049999237060547},{"type":2,"id":23680787,"urlname":"GDG-Guangzhou","status":"Active","city":"Guangzhou","country":"China","name":"GDG Guangzhou","lon":113.25,"lat":23.1200008392334},{"type":2,"id":24224009,"urlname":"GDG-Shenzhen","status":"Active","city":"Shenzhen","country":"China","name":"GDG Shenzhen","lon":114.12999725341797,"lat":22.530000686645508},{"type":2,"id":23680726,"urlname":"Zhuhai-GDG","status":"Active","city":"Zhuhai","country":"China","name":"Zhuhai GDG","lon":113.56999969482422,"lat":22.280000686645508},{"type":2,"id":23596506,"urlname":"gdg-nanning","status":"Active","city":"Nanning","country":"China","name":"GDG Nanning","lon":108.31999969482422,"lat":22.81999969482422},{"type":2,"id":30225507,"urlname":"GGD-Cloud-Bogota","status":"Active","city":"Bogotá","country":"Colombia","name":"GDG Cloud Bogotá","lon":-74.08999633789062,"lat":4.630000114440918},{"type":2,"id":1472680,"urlname":"gdgbogota","status":"Active","city":"Bogotá","country":"Colombia","name":"GDG Bogotá","lon":-74.08999633789062,"lat":4.630000114440918},{"type":2,"id":31594440,"urlname":"GDGNeiva","status":"Active","city":"Neiva","country":"Colombia","name":"GDG Neiva","lon":-75.2699966430664,"lat":2.940000057220459},{"type":2,"id":33369338,"urlname":"GDG-Cloud-Medellin","status":"Active","city":"Medellín","country":"Colombia","name":"GDG Cloud Medellín","lon":-75.58999633789062,"lat":6.25},{"type":2,"id":18528478,"urlname":"GDG-Medellin","status":"Active","city":"Medellín","country":"Colombia","name":"GDG Medellín","lon":-75.58999633789062,"lat":6.25},{"type":2,"id":16516592,"urlname":"GDGCali","status":"Active","city":"Cali","country":"Colombia","name":"GDG Cali","lon":-76.51000213623047,"lat":3.4200000762939453},{"type":2,"id":27131778,"urlname":"GDG-Brazza","status":"Active","city":"Brazzaville","country":"Congo","name":"GDG Brazza","lon":15.260000228881836,"lat":-4.25},{"type":2,"id":23402610,"urlname":"Meetup-GDG-Kinshasa","status":"Active","city":"Kinshasa","country":"Congo (Dem. Rep.)","name":"GDG Kinshasa","lon":15.319999694824219,"lat":-4.309999942779541},{"type":2,"id":33651658,"urlname":"gdg-lubumbashi","status":"Active","city":"Lubumbashi","country":"Congo (Dem. Rep.)","name":"GDG Lubumbashi","lon":27.479999542236328,"lat":-11.65999984741211},{"type":2,"id":23437397,"urlname":"GDG-Bukavu","status":"Active","city":"Bukavu","country":"Congo (Dem. Rep.)","name":"GDG Bukavu","lon":28.84000015258789,"lat":-2.509999990463257},{"type":2,"id":23418403,"urlname":"GDG-Goma","status":"Active","city":"Goma","country":"Congo (Dem. Rep.)","name":"GDG Goma","lon":29.219999313354492,"lat":-1.690000057220459},{"type":2,"id":23450145,"urlname":"gdg-costarica","status":"Active","city":"San Jose","country":"Costa Rica","name":"GDG Pura Vida","lon":-84.08000183105469,"lat":9.930000305175781},{"type":2,"id":29541809,"urlname":"Google-Cloud-Developer-Community-Zagreb","status":"Active","city":"Zagreb","country":"Croatia","name":"GDG Cloud Zagreb","lon":15.970000267028809,"lat":45.79999923706055},{"type":2,"id":30227735,"urlname":"GDG-Osijek","status":"Active","city":"Osijek","country":"Croatia","name":"GDG Osijek","lon":18.68000030517578,"lat":45.54999923706055},{"type":2,"id":30195843,"urlname":"GDG-Cyprus","status":"Active","city":"Nicosia","country":"Cyprus","name":"GDG Cyprus","lon":33.380001068115234,"lat":35.15999984741211},{"type":2,"id":19193222,"urlname":"GDGPrague","status":"Active","city":"Prague","country":"Czech Republic","name":"GDG Prague","lon":14.430000305175781,"lat":50.08000183105469},{"type":2,"id":19193503,"urlname":"gdgjihlava","status":"Active","city":"Jihlava","country":"Czech Republic","name":"GDG Jihlava","lon":15.579999923706055,"lat":49.400001525878906},{"type":2,"id":21084975,"urlname":"GDG-Pardubice","status":"Active","city":"Pardubice","country":"Czech Republic","name":"GDG Pardubice","lon":15.770000457763672,"lat":50.029998779296875},{"type":2,"id":21077347,"urlname":"GDG-Hradec-Kralove","status":"Delisted","city":"Hradec Králové","country":"Czech Republic","name":"GDG Hradec Králové","lon":15.819999694824219,"lat":50.220001220703125},{"type":2,"id":21253150,"urlname":"gdgbrno","status":"Active","city":"Brno","country":"Czech Republic","name":"GDG Brno","lon":16.610000610351562,"lat":49.20000076293945},{"type":2,"id":25779937,"urlname":"GDG-Olomouc","status":"Active","city":"Olomouc","country":"Czech Republic","name":"GDG Olomouc","lon":17.25,"lat":49.61000061035156},{"type":2,"id":23063023,"urlname":"GDG-Ostrava","status":"Active","city":"Ostrava","country":"Czech Republic","name":"GDG Ostrava","lon":18.270000457763672,"lat":49.83000183105469},{"type":2,"id":22687030,"urlname":"GDG-Aalborg","status":"Active","city":"Aalborg","country":"Denmark","name":"Google Developer Group Aalborg","lon":9.930000305175781,"lat":57.029998779296875},{"type":2,"id":10858022,"urlname":"Google-Developer-Group-Aarhus","status":"Active","city":"Århus","country":"Denmark","name":"Google Developer Group Aarhus","lon":10.210000038146973,"lat":56.15999984741211},{"type":2,"id":27821594,"urlname":"gdg-cloud-copenhagen","status":"Active","city":"Copenhagen","country":"Denmark","name":"GDG Cloud Copenhagen","lon":12.569999694824219,"lat":55.68000030517578},{"type":2,"id":19147728,"urlname":"GDG-Copenhagen","status":"Active","city":"Copenhagen","country":"Denmark","name":"GDG Copenhagen","lon":12.569999694824219,"lat":55.68000030517578},{"type":2,"id":33907241,"urlname":"GDG-Djibouti","status":"Active","city":"Jibuti","country":"Djibouti","name":"GDG Djibouti","lon":43.150001525878906,"lat":11.5600004196167},{"type":2,"id":23332414,"urlname":"GDG-Santo-Domingo","status":"Active","city":"Santo Domingo","country":"Dominican Republic","name":"GDG Santo Domingo","lon":-69.91000366210938,"lat":18.479999542236328},{"type":2,"id":31175484,"urlname":"GDG-QUITO","status":"Active","city":"Quito","country":"Ecuador","name":"GDG QUITO","lon":-78.5,"lat":-0.1899999976158142},{"type":2,"id":33691082,"urlname":"GDG-Guayaquil","status":"Active","city":"Guayaquil","country":"Ecuador","name":"GDG Guayaquil","lon":-79.9000015258789,"lat":-2.2100000381469727},{"type":2,"id":23679934,"urlname":"GDG-Alexandria","status":"Active","city":"Alexandria","country":"Egypt","name":"GDG Alexandria","lon":29.950000762939453,"lat":31.219999313354492},{"type":2,"id":31921714,"urlname":"GDG-Damanhour","status":"Active","city":"Damanhur","country":"Egypt","name":"GDG-Damanhour","lon":30.469999313354492,"lat":31.040000915527344},{"type":2,"id":23771173,"urlname":"GDGOctober","status":"Active","city":"Madinat Sittah Uktubar","country":"Egypt","name":"GDG 6 October","lon":31.049999237060547,"lat":29.81999969482422},{"type":2,"id":24827321,"urlname":"GDG-Delta-University","status":"Active","city":"al-Mansurah","country":"Egypt","name":"GDG Delta University","lon":31.3799991607666,"lat":31.040000915527344},{"type":2,"id":23694286,"urlname":"GDGShorouk","status":"Active","city":"El Shorouk","country":"Egypt","name":"GDG Shorouk","lon":31.209999084472656,"lat":30.049999237060547},{"type":2,"id":24171739,"urlname":"GDGMinia","status":"Active","city":"Minya","country":"Egypt","name":"GDG Minia","lon":30.760000228881836,"lat":28.09000015258789},{"type":2,"id":27560492,"urlname":"GCDCEgypt","status":"Active","city":"Cairo","country":"Egypt","name":"Google Cloud Developers Community Egypt","lon":31.25,"lat":30.059999465942383},{"type":2,"id":24109236,"urlname":"GDGCairo","status":"Active","city":"Cairo","country":"Egypt","name":"GDG Cairo","lon":31.25,"lat":30.059999465942383},{"type":2,"id":27598403,"urlname":"GDG-Beni-Suef","status":"Active","city":"Bani Suwayf","country":"Egypt","name":"GDG Beni-Suef","lon":31.09000015258789,"lat":29.079999923706055},{"type":2,"id":23794774,"urlname":"GDG-Helwan","status":"Active","city":"Helwan","country":"Egypt","name":"GDG Helwan","lon":31.34000015258789,"lat":29.850000381469727},{"type":2,"id":33230503,"urlname":"GDG-Damietta","status":"Active","city":"Dumyat","country":"Egypt","name":"GDG Damietta","lon":31.81999969482422,"lat":31.420000076293945},{"type":2,"id":23733730,"urlname":"gdgnewcairo","status":"Active","city":"New Cairo ","country":"Egypt","name":"GDG New Cairo","lon":31.489999771118164,"lat":30.010000228881836},{"type":2,"id":23746028,"urlname":"GDG-Ismailia","status":"Active","city":"Ismailia","country":"Egypt","name":"GDG Ismailia","lon":32.27000045776367,"lat":30.600000381469727},{"type":2,"id":28516380,"urlname":"GDG-Sohag","status":"Active","city":"Sawhaj","country":"Egypt","name":"GDG Sohag","lon":31.690000534057617,"lat":26.549999237060547},{"type":2,"id":31305726,"urlname":"GDG-Aswan","status":"Active","city":"Aswan","country":"Egypt","name":"GDG-Aswan","lon":32.91999816894531,"lat":24.079999923706055},{"type":2,"id":29966564,"urlname":"GDG-SanSalvador","status":"Active","city":"San Salvador","country":"El Salvador","name":"GDG San Salvador","lon":-89.19000244140625,"lat":13.6899995803833},{"type":2,"id":31098771,"urlname":"GDG-La-Libertad","status":"Active","city":"Antiguo Cuscatlán","country":"El Salvador","name":"GDG La Libertad","lon":-89.2300033569336,"lat":13.680000305175781},{"type":2,"id":28981911,"urlname":"Google-Cloud-Developer-Community-Tallinn","status":"Active","city":"Tallinn","country":"Estonia","name":"Google Cloud Developer Community Tallinn","lon":24.739999771118164,"lat":59.439998626708984},{"type":2,"id":24115692,"urlname":"GDG-Tartu","status":"Active","city":"Tartu","country":"Estonia","name":"GDG Tartu","lon":26.709999084472656,"lat":58.380001068115234},{"type":2,"id":33482226,"urlname":"GDG-Bahir-Dar","status":"Active","city":"Bahir Dar","country":"Ethiopia","name":"GDG Bahir Dar","lon":37.369998931884766,"lat":11.5600004196167},{"type":2,"id":23534862,"urlname":"GDG-Addis","status":"Active","city":"Addis Abeba","country":"Ethiopia","name":"GDG Addis","lon":38.7400016784668,"lat":9.029999732971191},{"type":2,"id":31021422,"urlname":"GDG-Adama","status":"Active","city":"Nazrêt","country":"Ethiopia","name":"GDG Adama","lon":39.27000045776367,"lat":8.550000190734863},{"type":2,"id":30212282,"urlname":"GDG-Cloud-Tampere","status":"Active","city":"Tampere","country":"Finland","name":"GDG Cloud Tampere","lon":23.760000228881836,"lat":61.52000045776367},{"type":2,"id":23452144,"urlname":"GDG-Cloud-Helsinki","status":"Active","city":"Helsinki","country":"Finland","name":"GDG Cloud Helsinki","lon":24.940000534057617,"lat":60.16999816894531},{"type":2,"id":14390092,"urlname":"GDG-Helsinki","status":"Active","city":"Helsinki","country":"Finland","name":"GDG Helsinki","lon":24.940000534057617,"lat":60.16999816894531},{"type":2,"id":22176448,"urlname":"FinistDevs","status":"Active","city":"Brest","country":"France","name":"FinistDevs","lon":-4.5,"lat":48.38999938964844},{"type":2,"id":24825983,"urlname":"GDG-Code-dArmor","status":"Active","city":"Lannion","country":"France","name":"GDG Code d'Armor","lon":-3.4700000286102295,"lat":48.75},{"type":2,"id":30676487,"urlname":"GDG-Cloud-Nantes","status":"Active","city":"Nantes","country":"France","name":"GDG Cloud Nantes","lon":-1.5700000524520874,"lat":47.22999954223633},{"type":2,"id":21129536,"urlname":"gdg_nantes_android","status":"Active","city":"Nantes","country":"France","name":"GDG Nantes Android","lon":-1.5700000524520874,"lat":47.22999954223633},{"type":2,"id":18459898,"urlname":"GDG-Nantes","status":"Active","city":"Nantes","country":"France","name":"GDG Nantes","lon":-1.5700000524520874,"lat":47.22999954223633},{"type":2,"id":21334446,"urlname":"gdg_rennes_android","status":"Active","city":"Rennes","country":"France","name":"GDG Rennes Android","lon":-1.6799999475479126,"lat":48.11000061035156},{"type":2,"id":28184134,"urlname":"GDG-Bordeaux","status":"Active","city":"Bordeaux","country":"France","name":"GDG Bordeaux","lon":-0.5799999833106995,"lat":44.84000015258789},{"type":2,"id":33426158,"urlname":"GDG-Cholet","status":"Active","city":"Cholet","country":"France","name":"GDG Cholet","lon":-0.8799999952316284,"lat":47.06999969482422},{"type":2,"id":32474471,"urlname":"GDG-Le-Mans","status":"Active","city":"Le Mans","country":"France","name":"GDG Le Mans","lon":0.20000000298023224,"lat":48},{"type":2,"id":19044152,"urlname":"GDG-Tours","status":"Active","city":"Tours","country":"France","name":"GDG Tours","lon":0.6899999976158142,"lat":47.380001068115234},{"type":2,"id":3769052,"urlname":"GDG-Toulouse","status":"Active","city":"Toulouse","country":"France","name":"GDG Toulouse","lon":1.4500000476837158,"lat":43.619998931884766},{"type":2,"id":20067619,"urlname":"GDG-Cloud-Paris","status":"Active","city":"Paris","country":"France","name":"GDG Cloud Paris","lon":2.3399999141693115,"lat":48.86000061035156},{"type":2,"id":2466382,"urlname":"gdg-paris","status":"Active","city":"Paris","country":"France","name":"GDG Paris","lon":2.3399999141693115,"lat":48.86000061035156},{"type":2,"id":1565152,"urlname":"Android-Paris","status":"Active","city":"Paris","country":"France","name":"Paris Android User Group","lon":2.3399999141693115,"lat":48.86000061035156},{"type":2,"id":29598998,"urlname":"Lille-Android-User-Group","status":"Active","city":"Lille","country":"France","name":"Lille Android User Group","lon":3.069999933242798,"lat":50.63999938964844},{"type":2,"id":11496162,"urlname":"GDG-Lille","status":"Active","city":"Lille","country":"France","name":"GDG Lille","lon":3.069999933242798,"lat":50.63999938964844},{"type":2,"id":26816049,"urlname":"GDG-Cloud-Lyon","status":"Active","city":"Lyon","country":"France","name":"GDG Cloud and IoT Lyon","lon":4.829999923706055,"lat":45.7599983215332},{"type":2,"id":23574582,"urlname":"Lyon-Android-User-Group-LYAUG","status":"Active","city":"Lyon","country":"France","name":"GDG Lyon (Ex LYAUG)","lon":4.829999923706055,"lat":45.7599983215332},{"type":2,"id":28964005,"urlname":"GDG-Aix-Marseille","status":"Active","city":"Aix-en-Provence","country":"France","name":"GDG Aix-Marseille","lon":5.440000057220459,"lat":43.529998779296875},{"type":2,"id":24685672,"urlname":"Google-Developer-Group-Alps","status":"Active","city":"Chambéry","country":"France","name":"GDG Alps","lon":5.909999847412109,"lat":45.58000183105469},{"type":2,"id":28980090,"urlname":"GDG-Strasbourg","status":"Active","city":"Strasbourg","country":"France","name":"GDG Strasbourg","lon":7.75,"lat":48.58000183105469},{"type":2,"id":31717928,"urlname":"gdg-Libreville","status":"Active","city":"Libreville","country":"Gabon","name":"GDG Libreville","lon":9.449999809265137,"lat":0.38999998569488525},{"type":2,"id":25835666,"urlname":"GDG-Banjul","status":"Active","city":"Banjul","country":"Gambia","name":"GDG Banjul","lon":-16.600000381469727,"lat":13.460000038146973},{"type":2,"id":33651806,"urlname":"GDG-Kutaisi","status":"Active","city":"Kutaisi","country":"Georgia","name":"GDG Kutaisi","lon":42.720001220703125,"lat":42.2599983215332},{"type":2,"id":24027373,"urlname":"Google-Developer-Group-Tbilisi-GDG-Tbilisi","status":"Active","city":"Tbilisi","country":"Georgia","name":"Google Developer Group Tbilisi (GDG Tbilisi)","lon":44.790000915527344,"lat":41.720001220703125},{"type":2,"id":22970728,"urlname":"GDG-Cloud-Dusseldorf","status":"Active","city":"Düsseldorf","country":"Germany","name":"GDG Cloud Düsseldorf","lon":6.789999961853027,"lat":51.2400016784668},{"type":2,"id":11192732,"urlname":"Google-Developer-Group-Dusseldorf","status":"Active","city":"Düsseldorf","country":"Germany","name":"GDG Düsseldorf","lon":6.789999961853027,"lat":51.2400016784668},{"type":2,"id":30659474,"urlname":"GDG-Cologne-Bonn","status":"Active","city":"Cologne","country":"Germany","name":"GDG Cologne\/Bonn","lon":6.960000038146973,"lat":50.939998626708984},{"type":2,"id":20119936,"urlname":"GDG-Freiburg","status":"Active","city":"Freiburg","country":"Germany","name":"GDG Freiburg","lon":7.849999904632568,"lat":47.9900016784668},{"type":2,"id":28331866,"urlname":"GDG-Wiesbaden","status":"Active","city":"Wiesbaden","country":"Germany","name":"Google Developer Group (GDG) Wiesbaden","lon":8.229999542236328,"lat":50.08000183105469},{"type":2,"id":19105294,"urlname":"GDG-Karlsruhe","status":"Active","city":"Karlsruhe","country":"Germany","name":"GDG Karlsruhe","lon":8.399999618530273,"lat":49},{"type":2,"id":23515198,"urlname":"GDG-Black-Forest","status":"Active","city":"Rottweil","country":"Germany","name":"GDG Black Forest","lon":8.619999885559082,"lat":48.16999816894531},{"type":2,"id":18551863,"urlname":"GDG-Ostwestfalen-Lippe","status":"Active","city":"Bielefeld","country":"Germany","name":"GDG Ostwestfalen-Lippe","lon":8.529999732971191,"lat":52.029998779296875},{"type":2,"id":20526344,"urlname":"Women-Techmakers-Frankfurt_Rhein-Main","status":"Active","city":"Frankfurt","country":"Germany","name":"Women Techmakers, Rhein-Main","lon":8.680000305175781,"lat":50.119998931884766},{"type":2,"id":18743375,"urlname":"gdgrheinmain","status":"Active","city":"Frankfurt","country":"Germany","name":"GDG Rhein-Main","lon":8.680000305175781,"lat":50.119998931884766},{"type":2,"id":25971776,"urlname":"gdg-hb","status":"Active","city":"Bremen","country":"Germany","name":"GDG Bremen","lon":8.8100004196167,"lat":53.08000183105469},{"type":2,"id":8680682,"urlname":"GDG-Bodensee","status":"Active","city":"Konstanz","country":"Germany","name":"GDG Bodensee","lon":9.170000076293945,"lat":47.68000030517578},{"type":2,"id":24686406,"urlname":"GDGStuttgart","status":"Active","city":"Stuttgart","country":"Germany","name":"Google Developer Group (GDG) Stuttgart","lon":9.1899995803833,"lat":48.790000915527344},{"type":2,"id":29386540,"urlname":"Hannover-Mobile-Development-Meetup","status":"Active","city":"Hannover","country":"Germany","name":"GDG Hannover for Mobile Development","lon":9.729999542236328,"lat":52.400001525878906},{"type":2,"id":31918819,"urlname":"Google-Developer-Group-Wurzburg","status":"Active","city":"Würzburg","country":"Germany","name":"GDG Würzburg","lon":9.9399995803833,"lat":49.79999923706055},{"type":2,"id":29705647,"urlname":"hildesheimGDG","status":"Active","city":"Hildesheim","country":"Germany","name":"GDG Hildesheim","lon":9.949999809265137,"lat":52.15999984741211},{"type":2,"id":19281976,"urlname":"womentechmakershamburg","status":"Active","city":"Hamburg","country":"Germany","name":"Women Techmakers","lon":10,"lat":53.54999923706055},{"type":2,"id":19203163,"urlname":"GDG-Hamburg-Android","status":"Delisted","city":"Hamburg","country":"Germany","name":"GDG Hamburg Android","lon":10,"lat":53.54999923706055},{"type":2,"id":12567242,"urlname":"Google-Developer-Group-Hamburg","status":"Active","city":"Hamburg","country":"Germany","name":"Google Developer Group Hamburg","lon":10,"lat":53.54999923706055},{"type":2,"id":26024558,"urlname":"GDG-Braunschweig","status":"Active","city":"Braunschweig","country":"Germany","name":"GDG Braunschweig","lon":10.510000228881836,"lat":52.27000045776367},{"type":2,"id":20815434,"urlname":"Google-Developer-Group-Erlangen","status":"Active","city":"Erlangen","country":"Germany","name":"Google Developer Group Erlangen","lon":11.010000228881836,"lat":49.599998474121094},{"type":2,"id":32652433,"urlname":"GDG-Cloud-Nuremberg","status":"Active","city":"Nürnberg","country":"Germany","name":"Google Cloud Developers Nuremberg","lon":11.050000190734863,"lat":49.45000076293945},{"type":2,"id":20276192,"urlname":"GDG-Nuremberg","status":"Active","city":"Nürnberg","country":"Germany","name":"GDG Nuremberg","lon":11.050000190734863,"lat":49.45000076293945},{"type":2,"id":21038385,"urlname":"GDG-cloud-munich","status":"Active","city":"München","country":"Germany","name":"GDG Cloud Munich","lon":11.579999923706055,"lat":48.13999938964844},{"type":2,"id":19149051,"urlname":"GDG-Munich-Android","status":"Active","city":"München","country":"Germany","name":"GDG Munich Android","lon":11.579999923706055,"lat":48.13999938964844},{"type":2,"id":18571827,"urlname":"gdg-munich","status":"Active","city":"München","country":"Germany","name":"GDG Munich","lon":11.579999923706055,"lat":48.13999938964844},{"type":2,"id":13747262,"urlname":"Munich-Gophers-Go-User-Group","status":"Delisted","city":"München","country":"Germany","name":"GDG Munich Gophers","lon":11.579999923706055,"lat":48.13999938964844},{"type":2,"id":19172090,"urlname":"Mobile-Stammtisch-GDG-Regensburg","status":"Active","city":"Regensburg","country":"Germany","name":"Mobile Stammtisch\/GDG Regensburg","lon":12.109999656677246,"lat":49.02000045776367},{"type":2,"id":32987747,"urlname":"GDG_Rosenheim","status":"Active","city":"Rosenheim","country":"Germany","name":"Google Developer Group Rosenheim","lon":12.149999618530273,"lat":47.86000061035156},{"type":2,"id":32685323,"urlname":"GDG-Leipzig","status":"Active","city":"Leipzig","country":"Germany","name":"GDG Leipzig","lon":12.399999618530273,"lat":51.349998474121094},{"type":2,"id":25968520,"urlname":"GDG-BGL","status":"Active","city":"Freilassing","country":"Germany","name":"Google Developer Group BGL","lon":12.989999771118164,"lat":47.84000015258789},{"type":2,"id":24501475,"urlname":"Cloud-GDG-Berlin","status":"Active","city":"Berlin","country":"Germany","name":"GDG Berlin Cloud","lon":13.380000114440918,"lat":52.52000045776367},{"type":2,"id":22986801,"urlname":"Women-Techmakers-Berlin","status":"Active","city":"Berlin","country":"Germany","name":"Women Techmakers Berlin","lon":13.380000114440918,"lat":52.52000045776367},{"type":2,"id":18029372,"urlname":"berlindroid","status":"Active","city":"Berlin","country":"Germany","name":"GDG Berlin Android","lon":13.380000114440918,"lat":52.52000045776367},{"type":2,"id":2303271,"urlname":"gdg-berlin","status":"Active","city":"Berlin","country":"Germany","name":"Google Developer Group Berlin (GDG Berlin)","lon":13.380000114440918,"lat":52.52000045776367},{"type":2,"id":2256641,"urlname":"golang-users-berlin","status":"Active","city":"Berlin","country":"Germany","name":"GDG Berlin Golang","lon":13.380000114440918,"lat":52.52000045776367},{"type":2,"id":19884566,"urlname":"GDG-Passau","status":"Active","city":"Passau","country":"Germany","name":"GDG Passau","lon":13.4399995803833,"lat":48.58000183105469},{"type":2,"id":18937267,"urlname":"GDG-Dresden","status":"Active","city":"Dresden","country":"Germany","name":"GDG Dresden","lon":13.739999771118164,"lat":51.04999923706055},{"type":2,"id":23696491,"urlname":"gdg-kumasi","status":"Active","city":"Kumasi","country":"Ghana","name":"GDG KUMASI","lon":-1.6299999952316284,"lat":6.690000057220459},{"type":2,"id":33507794,"urlname":"GDG-Cloud-Accra","status":"Active","city":"Accra","country":"Ghana","name":"GDG Cloud Accra","lon":-0.20000000298023224,"lat":5.559999942779541},{"type":2,"id":23403437,"urlname":"GDG-Accra","status":"Active","city":"Accra","country":"Ghana","name":"GDG Accra","lon":-0.20000000298023224,"lat":5.559999942779541},{"type":2,"id":32304181,"urlname":"GDG-Cloud-Thessaloniki","status":"Active","city":"Thessaloníki","country":"Greece","name":"GDG Cloud Thessaloniki","lon":22.940000534057617,"lat":40.63999938964844},{"type":2,"id":22913865,"urlname":"Google-Developers-Thessaloniki","status":"Active","city":"Thessaloníki","country":"Greece","name":"GDG Thessaloniki","lon":22.940000534057617,"lat":40.63999938964844},{"type":2,"id":22913482,"urlname":"WomenTechmakersGR","status":"Active","city":"Thessaloníki","country":"Greece","name":"Women Techmakers Greece","lon":22.940000534057617,"lat":40.63999938964844},{"type":2,"id":32485451,"urlname":"gdgcloudathens","status":"Active","city":"Athens","country":"Greece","name":"GDG Cloud Athens","lon":23.729999542236328,"lat":37.97999954223633},{"type":2,"id":22914353,"urlname":"Google-Developer-Group-Athens-Meetup","status":"Active","city":"Athens","country":"Greece","name":"GDG Athens","lon":23.729999542236328,"lat":37.97999954223633},{"type":2,"id":22990785,"urlname":"GDG-Heraklion","status":"Active","city":"Iráklion","country":"Greece","name":"Google Developers Group Heraklion","lon":25.1299991607666,"lat":35.33000183105469},{"type":2,"id":31206942,"urlname":"GDG-Cloud-GT","status":"Active","city":"Guatemala","country":"Guatemala","name":"GDG Cloud GT","lon":-90.55000305175781,"lat":14.630000114440918},{"type":2,"id":23659989,"urlname":"GDG-Guatemala","status":"Active","city":"Guatemala","country":"Guatemala","name":"GDG Guatemala","lon":-90.55000305175781,"lat":14.630000114440918},{"type":2,"id":33919729,"urlname":"GDG-Xela","status":"Active","city":"Quetzaltenango","country":"Guatemala","name":"GDG Xela","lon":-91.52999877929688,"lat":14.84000015258789},{"type":2,"id":29339568,"urlname":"GDGRatoma","status":"Active","city":"Conakry","country":"Guinea","name":"GDG Ratoma","lon":-13.670000076293945,"lat":9.550000190734863},{"type":2,"id":28204879,"urlname":"GDG-CONAKRY","status":"Active","city":"Conakry","country":"Guinea","name":"GDG Conakry","lon":-13.670000076293945,"lat":9.550000190734863},{"type":2,"id":32043335,"urlname":"gdg-gt","status":"Active","city":"Georgetown","country":"Guyana","name":"GDG-Georgetown","lon":-58.15999984741211,"lat":6.789999961853027},{"type":2,"id":31666304,"urlname":"GDG-Port-au-Prince","status":"Active","city":"Port-au-Prince","country":"Haiti","name":"GDG Port-au-Prince","lon":-72.33999633789062,"lat":18.540000915527344},{"type":2,"id":32300078,"urlname":"gdg-cloud-tgu","status":"Active","city":"Tegucigalpa","country":"Honduras","name":"GDG Cloud Tegucigalpa","lon":-87.22000122070312,"lat":14.079999923706055},{"type":2,"id":24284541,"urlname":"Meetup-GDG-Tegucigalpa","status":"Active","city":"Tegucigalpa","country":"Honduras","name":"Meetup - GDG Tegucigalpa","lon":-87.22000122070312,"lat":14.079999923706055},{"type":2,"id":24428138,"urlname":"GDG-San-Pedro-Sula","status":"Active","city":"San Pedro Sula","country":"Honduras","name":"GDG San Pedro Sula","lon":-88.02999877929688,"lat":15.470000267028809},{"type":2,"id":32468011,"urlname":"GDG-Cloud-Hong-Kong","status":"Active","city":"Hong Kong","country":"Hong Kong","name":"GDG Cloud Hong Kong","lon":114.13999938964844,"lat":22.270000457763672},{"type":2,"id":18971421,"urlname":"GDG-Hong-Kong","status":"Active","city":"Hong Kong","country":"Hong Kong","name":"GDG Hong Kong","lon":114.13999938964844,"lat":22.270000457763672},{"type":2,"id":32715716,"urlname":"GDG-Cloud-Budapest","status":"Active","city":"Budapest","country":"Hungary","name":"GDG Cloud Budapest","lon":19.079999923706055,"lat":47.5099983215332},{"type":2,"id":6397942,"urlname":"GDG-Budapest","status":"Active","city":"Budapest","country":"Hungary","name":"GDG Budapest","lon":19.079999923706055,"lat":47.5099983215332},{"type":2,"id":31041597,"urlname":"GDG-Srinagar","status":"Active","city":"Srinagar","country":"India","name":"GDG Srinagar","lon":74.79000091552734,"lat":34.09000015258789},{"type":2,"id":23438214,"urlname":"GDG-Jalandhar","status":"Active","city":"Jalandhar","country":"India","name":"GDG Jalandhar","lon":75.56999969482422,"lat":31.329999923706055},{"type":2,"id":29885464,"urlname":"GDG-Chandigarh","status":"Active","city":"Chandigarh","country":"India","name":"GDG Chandigarh","lon":76.77999877929688,"lat":30.75},{"type":2,"id":17081912,"urlname":"GDGJodhpur","status":"Active","city":"Jodhpur","country":"India","name":"Google Developers Group Jodhpur","lon":73.0199966430664,"lat":26.290000915527344},{"type":2,"id":24937428,"urlname":"GDG-Rajkot","status":"Active","city":"Rajkot","country":"India","name":"GDG Rajkot","lon":70.79000091552734,"lat":22.309999465942383},{"type":2,"id":28588692,"urlname":"gdgcloudnd","status":"Active","city":"Delhi","country":"India","name":"GDG Cloud New Delhi","lon":77.20999908447266,"lat":28.670000076293945},{"type":2,"id":23419616,"urlname":"GDGNewDelhi","status":"Active","city":"Delhi","country":"India","name":"GDG New Delhi","lon":77.20999908447266,"lat":28.670000076293945},{"type":2,"id":32555386,"urlname":"Jaipur-GDG-Cloud-Meetup-Group","status":"Active","city":"Jaipur","country":"India","name":"Jaipur GDG Cloud Meetup Group","lon":75.80000305175781,"lat":26.920000076293945},{"type":2,"id":25018823,"urlname":"GDG-Jaipur","status":"Active","city":"Jaipur","country":"India","name":"GDG Jaipur","lon":75.80000305175781,"lat":26.920000076293945},{"type":2,"id":23561437,"urlname":"GDG-Udaipur","status":"Active","city":"Udaipur","country":"India","name":"GDG Udaipur","lon":73.69000244140625,"lat":24.579999923706055},{"type":2,"id":24716717,"urlname":"GDG-Gandhinagar","status":"Active","city":"Gandhinagar","country":"India","name":"GDG Gandhinagar","lon":72.62999725341797,"lat":23.299999237060547},{"type":2,"id":30906470,"urlname":"gdgcloudahm","status":"Active","city":"Ahmedabad","country":"India","name":"GDG Cloud Ahmedabad","lon":72.58000183105469,"lat":23.030000686645508},{"type":2,"id":18837068,"urlname":"GDG-Ahmedabad","status":"Active","city":"Ahmedabad","country":"India","name":"GDG Ahmedabad","lon":72.58000183105469,"lat":23.030000686645508},{"type":2,"id":18190208,"urlname":"gdgbaroda","status":"Active","city":"Vadodara","country":"India","name":"Google Developers Group, Baroda : GDG Baroda","lon":73.18000030517578,"lat":22.309999465942383},{"type":2,"id":29946762,"urlname":"GDG_Surat","status":"Active","city":"Surat","country":"India","name":"Google Developer Group : GDG Surat","lon":72.81999969482422,"lat":21.200000762939453},{"type":2,"id":32899949,"urlname":"gdg-gwalior","status":"Active","city":"Gwalior","country":"India","name":"GDG Gwalior","lon":78.16999816894531,"lat":26.229999542236328},{"type":2,"id":30161920,"urlname":"gdg-mad","status":"Active","city":"Mumbai","country":"India","name":"GDG MAD","lon":72.81999969482422,"lat":18.959999084472656},{"type":2,"id":29228418,"urlname":"Google-Cloud-Developer-Community-Mumbai","status":"Active","city":"Mumbai","country":"India","name":"GDG Cloud Mumbai","lon":72.81999969482422,"lat":18.959999084472656},{"type":2,"id":29367618,"urlname":"Google-Cloud-Developer-Community-Indore","status":"Active","city":"Indore","country":"India","name":"GDG Cloud Indore","lon":75.86000061035156,"lat":22.719999313354492},{"type":2,"id":17932692,"urlname":"GDGIndore","status":"Active","city":"Indore","country":"India","name":"GDG Indore","lon":75.86000061035156,"lat":22.719999313354492},{"type":2,"id":31032050,"urlname":"GDG-Nashik","status":"Active","city":"Nashik","country":"India","name":"GDG Nashik","lon":73.77999877929688,"lat":20.010000228881836},{"type":2,"id":32244661,"urlname":"gdg_bhopal","status":"Active","city":"Bhopal","country":"India","name":"GDG Bhopal (Google Developers Group Bhopal)","lon":77.4000015258789,"lat":23.239999771118164},{"type":2,"id":28580026,"urlname":"GDG-Cloud-Pune","status":"Active","city":"Pune","country":"India","name":"GDG Cloud, Pune","lon":73.83999633789062,"lat":18.530000686645508},{"type":2,"id":4387912,"urlname":"Pune-GDG","status":"Active","city":"Pune","country":"India","name":"Google Developer Group Pune : GDG Pune","lon":73.83999633789062,"lat":18.530000686645508},{"type":2,"id":23452552,"urlname":"GoogleGoa","status":"Active","city":"Panaji","country":"India","name":"GDG Goa","lon":73.80999755859375,"lat":15.5},{"type":2,"id":32031905,"urlname":"GDG-Nagpur","status":"Active","city":"Nagpur","country":"India","name":"GDG Nagpur","lon":79.08000183105469,"lat":21.15999984741211},{"type":2,"id":29413913,"urlname":"GDGHubli","status":"Active","city":"Hubli","country":"India","name":"GDG and WTM Hubli","lon":75.12999725341797,"lat":15.359999656677246},{"type":2,"id":33046598,"urlname":"GDG-Patna","status":"Active","city":"Patna","country":"India","name":"GDG Patna","lon":85.12999725341797,"lat":25.6200008392334},{"type":2,"id":31055394,"urlname":"GDG-Siliguri","status":"Active","city":"Shiliguri","country":"India","name":"GDG Siliguri","lon":88.41999816894531,"lat":26.729999542236328},{"type":2,"id":33289958,"urlname":"GDG-Bhilai","status":"Active","city":"Bhilai","country":"India","name":"GDG Bhilai","lon":81.37999725341797,"lat":21.209999084472656},{"type":2,"id":29278487,"urlname":"Google-Cloud-Developer-Community-Hyderabad","status":"Active","city":"Hyderabad","country":"India","name":"GDG Cloud, Hyderabad","lon":78.4800033569336,"lat":17.399999618530273},{"type":2,"id":24333097,"urlname":"GDGHyderabad","status":"Active","city":"Hyderabad","country":"India","name":"GDG Hyderabad","lon":78.4800033569336,"lat":17.399999618530273},{"type":2,"id":30375910,"urlname":"GDG-Ranchi","status":"Active","city":"Ranchi","country":"India","name":"GDG Ranchi","lon":85.33000183105469,"lat":23.360000610351562},{"type":2,"id":23563475,"urlname":"GDG-Kozhikode","status":"Active","city":"Kozhikode","country":"India","name":"GDG Kozhikode","lon":75.77999877929688,"lat":11.260000228881836},{"type":2,"id":29612014,"urlname":"Google-Developers-group-Mysuru","status":"Active","city":"Mysore","country":"India","name":"GDG-Mysuru","lon":76.63999938964844,"lat":12.300000190734863},{"type":2,"id":28689777,"urlname":"gdgcblr","status":"Active","city":"Bangalore","country":"India","name":"GDG Cloud Bengaluru","lon":77.55999755859375,"lat":12.970000267028809},{"type":2,"id":15726622,"urlname":"GDGBangalore","status":"Active","city":"Bangalore","country":"India","name":"GDG Bangalore","lon":77.55999755859375,"lat":12.970000267028809},{"type":2,"id":1537455,"urlname":"blrdroid","status":"Active","city":"Bangalore","country":"India","name":"GDG Blrdroid - Bangalore Android Developers Group","lon":77.55999755859375,"lat":12.970000267028809},{"type":2,"id":23439627,"urlname":"GDGCochin","status":"Active","city":"Kochi","country":"India","name":"GDG Cochin","lon":76.22000122070312,"lat":10.020000457763672},{"type":2,"id":29515686,"urlname":"GDG-Cloud-Coimbatore","status":"Active","city":"Coimbatore","country":"India","name":"GDG Cloud Coimbatore","lon":76.95999908447266,"lat":11.020000457763672},{"type":2,"id":23419819,"urlname":"GDGCoimbatore","status":"Active","city":"Coimbatore","country":"India","name":"GDG Coimbatore : Google Developer Group, Coimbatore","lon":76.95999908447266,"lat":11.020000457763672},{"type":2,"id":29359324,"urlname":"Google-Developer-Group-Cloud-Kolkata","status":"Active","city":"Kolkata","country":"India","name":"Google  Developer  Group Cloud Community, Kolkata","lon":88.36000061035156,"lat":22.56999969482422},{"type":2,"id":28413156,"urlname":"GDG-Kolkata","status":"Active","city":"Kolkata","country":"India","name":"GDG Kolkata","lon":88.36000061035156,"lat":22.56999969482422},{"type":2,"id":33276886,"urlname":"GDG-Salem","status":"Active","city":"Salem","country":"India","name":"GDG Salem","lon":78.1500015258789,"lat":11.65999984741211},{"type":2,"id":28908704,"urlname":"Google-Cloud-Developer-Community-Bhubaneswar","status":"Active","city":"Bhubaneswar","country":"India","name":"GDG Cloud Bhubaneswar","lon":85.83999633789062,"lat":20.270000457763672},{"type":2,"id":17639772,"urlname":"GDG-Bhubaneswar","status":"Active","city":"Bhubaneswar","country":"India","name":"GDG Bhubaneswar","lon":85.83999633789062,"lat":20.270000457763672},{"type":2,"id":23550509,"urlname":"gdgtvpm","status":"Active","city":"Thiruvananthapuram","country":"India","name":"GDG Thiruvananthapuram","lon":76.94999694824219,"lat":8.510000228881836},{"type":2,"id":29275204,"urlname":"GDG-Vizag","status":"Active","city":"Visakhapatnam","country":"India","name":"GDG-Vizag","lon":83.30000305175781,"lat":17.729999542236328},{"type":2,"id":25112821,"urlname":"GDG-Madurai","status":"Active","city":"Madurai","country":"India","name":"GDG Madurai","lon":78.12000274658203,"lat":9.920000076293945},{"type":2,"id":28655420,"urlname":"GdgCloudChennai","status":"Active","city":"Chennai","country":"India","name":"GDG Cloud Chennai","lon":80.2699966430664,"lat":13.09000015258789},{"type":2,"id":23582143,"urlname":"GDGChennai","status":"Active","city":"Chennai","country":"India","name":"GDG Chennai","lon":80.2699966430664,"lat":13.09000015258789},{"type":2,"id":33845025,"urlname":"GDG-Makassar","status":"Active","city":"Makassar","country":"Indonesia","name":"GDG Makassar","lon":119.41000366210938,"lat":-5.139999866485596},{"type":2,"id":25403874,"urlname":"GDG-Bali","status":"Active","city":"Denpasar","country":"Indonesia","name":"GDG Bali","lon":115.22000122070312,"lat":-8.649999618530273},{"type":2,"id":32799393,"urlname":"GDG-Cloud-Surabaya","status":"Active","city":"Surabaya","country":"Indonesia","name":"GDG Cloud Surabaya","lon":112.73999786376953,"lat":-7.239999771118164},{"type":2,"id":23699013,"urlname":"GDGSurabaya","status":"Active","city":"Surabaya","country":"Indonesia","name":"GDG Surabaya","lon":112.73999786376953,"lat":-7.239999771118164},{"type":2,"id":24820591,"urlname":"GDG-Jogjakarta","status":"Active","city":"Yogyakarta","country":"Indonesia","name":"GDG Jogjakarta","lon":110.37000274658203,"lat":-7.78000020980835},{"type":2,"id":23663203,"urlname":"gdg-semarang","status":"Active","city":"Semarang","country":"Indonesia","name":"GDG Semarang","lon":110.41999816894531,"lat":-6.96999979019165},{"type":2,"id":32071233,"urlname":"GDG-Cloud-Bandung","status":"Active","city":"Bandung","country":"Indonesia","name":"GDG Cloud Bandung","lon":107.5999984741211,"lat":-6.909999847412109},{"type":2,"id":23663249,"urlname":"GDG-Bandung","status":"Active","city":"Bandung","country":"Indonesia","name":"GDG Bandung","lon":107.5999984741211,"lat":-6.909999847412109},{"type":2,"id":23746579,"urlname":"GDG-Bogor","status":"Delisted","city":"Bogor","country":"Indonesia","name":"GDG Bogor","lon":106.79000091552734,"lat":-6.579999923706055},{"type":2,"id":23663251,"urlname":"gdg-depok","status":"Active","city":"Depok","country":"Indonesia","name":"GDG Depok","lon":106.83000183105469,"lat":-6.389999866485596},{"type":2,"id":23763921,"urlname":"GDG-Jakarta","status":"Active","city":"Jakarta","country":"Indonesia","name":"GDG Jakarta","lon":106.83000183105469,"lat":-6.179999828338623},{"type":2,"id":26845230,"urlname":"GDG-Erbil","status":"Active","city":"Irbil","country":"Iraq","name":"GDG and WTM Erbil","lon":44.02000045776367,"lat":36.189998626708984},{"type":2,"id":29061648,"urlname":"GDG-Najaf","status":"Active","city":"an-Najaf","country":"Iraq","name":"GDG-Najaf","lon":44.33000183105469,"lat":31.989999771118164},{"type":2,"id":33734833,"urlname":"GDG-Basrah","status":"Active","city":"al-Basrah","country":"Iraq","name":"GDG Basrah","lon":47.83000183105469,"lat":30.5},{"type":2,"id":30615466,"urlname":"GDG-Cork","status":"Active","city":"Cork","country":"Ireland","name":"GDG Cork","lon":-8.470000267028809,"lat":51.900001525878906},{"type":2,"id":19202785,"urlname":"GDGGalway","status":"Active","city":"Galway","country":"Ireland","name":"GDG Galway","lon":-9.0600004196167,"lat":53.279998779296875},{"type":2,"id":27904779,"urlname":"AthloneDevelopersGroup","status":"Active","city":"Athlone","country":"Ireland","name":"Athlone Developers Group","lon":-7.949999809265137,"lat":53.41999816894531},{"type":2,"id":26916341,"urlname":"GDG-Cloud-Dublin","status":"Active","city":"Dublin","country":"Ireland","name":"GDG Cloud Dublin","lon":-6.25,"lat":53.33000183105469},{"type":2,"id":19147770,"urlname":"GDG-Dublin","status":"Active","city":"Dublin","country":"Ireland","name":"GDG Dublin","lon":-6.25,"lat":53.33000183105469},{"type":2,"id":6014802,"urlname":"GDG-Haifa","status":"Active","city":"Haifa","country":"Israel","name":"GDG Haifa","lon":34.9900016784668,"lat":32.81999969482422},{"type":2,"id":19425408,"urlname":"GDG-Cloud-Tel-Aviv","status":"Active","city":"Tel Aviv-Yafo","country":"Israel","name":"GDG Cloud Tel Aviv","lon":34.77000045776367,"lat":32.06999969482422},{"type":2,"id":4079132,"urlname":"GDG-Beer-Sheva","status":"Active","city":"Be'er Sheva","country":"Israel","name":"GDG Beer Sheva","lon":34.79999923706055,"lat":31.25},{"type":2,"id":4079132,"urlname":"GDG-Beer-Sheva","status":"Active","city":"Be'er Sheva","country":"Israel","name":"GDG Beer Sheva","lon":34.79999923706055,"lat":31.25},{"type":2,"id":33768899,"urlname":"GDG-Jerusalem","status":"Active","city":"Jerusalem","country":"Israel","name":"GDG Jerusalem","lon":35.220001220703125,"lat":31.780000686645508},{"type":2,"id":30511498,"urlname":"Google-Cloud-Developer-Community-Torino","status":"Active","city":"Torino","country":"Italy","name":"GDG Cloud Torino - Google Developer Group Cloud Torino","lon":7.670000076293945,"lat":45.04999923706055},{"type":2,"id":23444638,"urlname":"GDG-Torino","status":"Active","city":"Torino","country":"Italy","name":"GDG Torino","lon":7.670000076293945,"lat":45.04999923706055},{"type":2,"id":27207810,"urlname":"GDG-Valle-DAosta","status":"Active","city":"Saint-Vincent","country":"Italy","name":"GDG Valle D'Aosta","lon":7.650000095367432,"lat":45.75},{"type":2,"id":25703558,"urlname":"gdggenova","status":"Active","city":"Genova","country":"Italy","name":"GDG Genova","lon":8.949999809265137,"lat":44.41999816894531},{"type":2,"id":19197572,"urlname":"GDG-Sardegna","status":"Active","city":"Cagliari","country":"Italy","name":"GDG Sardegna","lon":9.119999885559082,"lat":39.220001220703125},{"type":2,"id":28489104,"urlname":"GDG-Cloud-Milano","status":"Active","city":"Milano","country":"Italy","name":"GDG Cloud Milano","lon":9.1899995803833,"lat":45.459999084472656},{"type":2,"id":23355362,"urlname":"GDG-Milano","status":"Active","city":"Milano","country":"Italy","name":"GDG Milano","lon":9.1899995803833,"lat":45.459999084472656},{"type":2,"id":24329223,"urlname":"Meetup-GDG-Brescia","status":"Active","city":"Brescia","country":"Italy","name":"Meetup GDG Brescia","lon":10.25,"lat":45.54999923706055},{"type":2,"id":23390216,"urlname":"GDG-Pisa","status":"Active","city":"Pisa","country":"Italy","name":"GDG Pisa","lon":10.380000114440918,"lat":43.720001220703125},{"type":2,"id":25355347,"urlname":"gdgreggioemilia","status":"Active","city":"Reggio nell'Emilia","country":"Italy","name":"GDG Reggio Emilia","lon":10.630000114440918,"lat":44.72999954223633},{"type":2,"id":33091467,"urlname":"GDG-Verona","status":"Active","city":"Verona","country":"Italy","name":"GDG Verona","lon":11,"lat":45.45000076293945},{"type":2,"id":23341265,"urlname":"GDG-Trento","status":"Active","city":"Trento","country":"Italy","name":"GDG Trento","lon":11.119999885559082,"lat":46.06999969482422},{"type":2,"id":23693196,"urlname":"GDG-Firenze","status":"Active","city":"Firenze","country":"Italy","name":"GDG-Firenze","lon":11.25,"lat":43.77000045776367},{"type":2,"id":23442492,"urlname":"gdgbologna","status":"Active","city":"Bologna","country":"Italy","name":"GDG Bologna","lon":11.34000015258789,"lat":44.4900016784668},{"type":2,"id":23342135,"urlname":"GDG-Venezia","status":"Active","city":"Venezia","country":"Italy","name":"GDG Venezia","lon":12.329999923706055,"lat":45.439998626708984},{"type":2,"id":29138587,"urlname":"gdgcloudroma","status":"Active","city":"Roma","country":"Italy","name":"Google Developer Group Cloud Roma","lon":12.479999542236328,"lat":41.900001525878906},{"type":2,"id":19227338,"urlname":"GDG-Roma","status":"Active","city":"Roma","country":"Italy","name":"Google Developer Group Roma Meetup","lon":12.479999542236328,"lat":41.900001525878906},{"type":2,"id":32158445,"urlname":"GDG-Urbino","status":"Active","city":"Urbino","country":"Italy","name":"GDG Urbino","lon":12.640000343322754,"lat":43.72999954223633},{"type":2,"id":23351813,"urlname":"GDGPalermo","status":"Active","city":"Palermo","country":"Italy","name":"GDG Palermo","lon":13.359999656677246,"lat":38.119998931884766},{"type":2,"id":28634758,"urlname":"GDG-Pescara","status":"Active","city":"Pescara","country":"Italy","name":"GDG Pescara","lon":14.220000267028809,"lat":42.470001220703125},{"type":2,"id":7890232,"urlname":"GDGCampania","status":"Active","city":"Napoli","country":"Italy","name":"GDG Campania","lon":14.25,"lat":40.84000015258789},{"type":2,"id":19198329,"urlname":"Google-Developer-Group-Gela-GDG-Gela","status":"Active","city":"Gela","country":"Italy","name":"Google Developer Group Gela - GDG Gela","lon":14.25,"lat":37.06999969482422},{"type":2,"id":24982756,"urlname":"GDG-Campobasso","status":"Active","city":"Campobasso","country":"Italy","name":"GDG Campobasso","lon":14.670000076293945,"lat":41.560001373291016},{"type":2,"id":19167759,"urlname":"gdgnebrodi","status":"Active","city":"Sant'Agata di Militello","country":"Italy","name":"Google Developer Group Nebrodi","lon":14.640000343322754,"lat":38.06999969482422},{"type":2,"id":24753206,"urlname":"GDG-Catania","status":"Active","city":"Catania","country":"Italy","name":"GDG Catania","lon":15.09000015258789,"lat":37.5},{"type":2,"id":24711979,"urlname":"GDG-Reggio-Calabria","status":"Active","city":"Reggio di Calabria","country":"Italy","name":"GDG Reggio Calabria","lon":15.640000343322754,"lat":38.11000061035156},{"type":2,"id":19193639,"urlname":"Google-Developer-Group-Cosenza","status":"Active","city":"Cosenza","country":"Italy","name":"GDG Cosenza","lon":16.25,"lat":39.29999923706055},{"type":2,"id":19199767,"urlname":"GDG-Bari","status":"Active","city":"Bari","country":"Italy","name":"GDG Bari","lon":16.8700008392334,"lat":41.130001068115234},{"type":2,"id":23455838,"urlname":"GDG-Yamoussoukro","status":"Active","city":"Yamoussoukro","country":"Ivory Coast","name":"GDG Yamoussoukro","lon":-5.28000020980835,"lat":6.820000171661377},{"type":2,"id":26301029,"urlname":"GDG-Bouake","status":"Active","city":"Bouaké","country":"Ivory Coast","name":"GDG Bouaké","lon":-5.03000020980835,"lat":7.690000057220459},{"type":2,"id":23540686,"urlname":"GDGMiageGi","status":"Active","city":"Abidjan","country":"Ivory Coast","name":"GDG Miage Gi","lon":-4.03000020980835,"lat":5.329999923706055},{"type":2,"id":23418282,"urlname":"GDG-Cocody","status":"Active","city":"Abidjan","country":"Ivory Coast","name":"GDG Cocody","lon":-4.03000020980835,"lat":5.329999923706055},{"type":2,"id":23398952,"urlname":"GDGAbidjan","status":"Active","city":"Abidjan","country":"Ivory Coast","name":"GDG Abidjan","lon":-4.03000020980835,"lat":5.329999923706055},{"type":2,"id":23441070,"urlname":"GDG-Bassam","status":"Active","city":"Grand Bassam","country":"Ivory Coast","name":"GDG Bassam","lon":-3.75,"lat":5.199999809265137},{"type":2,"id":32075660,"urlname":"GDG-Kingston","status":"Active","city":"Kingston","country":"Jamaica","name":"GDG Kingston","lon":-76.80000305175781,"lat":17.979999542236328},{"type":2,"id":33375952,"urlname":"Sapporo-apk-powerd-by-GDG-Sapporo","status":"Active","city":"Sapporo","country":"Japan","name":"GDG Sapporo extended sapporo.apk","lon":141.33999633789062,"lat":43.060001373291016},{"type":2,"id":24189706,"urlname":"GDG-Ishinomaki","status":"Active","city":"Ishinomaki","country":"Japan","name":"GDG Ishinomaki","lon":141.2899932861328,"lat":38.43000030517578},{"type":2,"id":31900627,"urlname":"GDG-Cloud-Sendai","status":"Active","city":"Sendai","country":"Japan","name":"GDG Cloud Sendai","lon":140.88999938964844,"lat":38.2599983215332},{"type":2,"id":31427053,"urlname":"GDG-Fukushima","status":"Active","city":"Koriyama","country":"Japan","name":"GDG Fukushima","lon":140.3800048828125,"lat":37.40999984741211},{"type":2,"id":31000758,"urlname":"GDG-Cloud-Fukushima","status":"Active","city":"Koriyama","country":"Japan","name":"GDG Cloud Fukushima","lon":140.3800048828125,"lat":37.40999984741211},{"type":2,"id":31918896,"urlname":"GDG-Cloud-Saitama","status":"Active","city":"Saitama","country":"Japan","name":"GDG Cloud Saitama","lon":139.64999389648438,"lat":35.869998931884766},{"type":2,"id":33863213,"urlname":"Women-Techmakers-Tokyo","status":"Active","city":"Tokyo","country":"Japan","name":"Women Techmakers Tokyo","lon":139.77000427246094,"lat":35.66999816894531},{"type":2,"id":26380219,"urlname":"GTUG-Girls","status":"Active","city":"Tokyo","country":"Japan","name":"GTUG Girls","lon":139.77000427246094,"lat":35.66999816894531},{"type":2,"id":23821437,"urlname":"gdg-tokyo-jp","status":"Active","city":"Tokyo","country":"Japan","name":"GDG Tokyo","lon":139.77000427246094,"lat":35.66999816894531},{"type":2,"id":31727626,"urlname":"GCPUG-Shonan","status":"Delisted","city":"Chigasaki","country":"Japan","name":"GCPUG Shonan","lon":139.41000366210938,"lat":35.33000183105469},{"type":2,"id":31736523,"urlname":"GDG-Cloud-Shinshu","status":"Active","city":"Shiojiri","country":"Japan","name":"GDG Cloud Shinshu","lon":137.9600067138672,"lat":36.119998931884766},{"type":2,"id":24242243,"urlname":"gdgshinshu","status":"Active","city":"Shiojiri","country":"Japan","name":"GDG Shinshu","lon":137.9600067138672,"lat":36.119998931884766},{"type":2,"id":33091223,"urlname":"GDG-Nagoya","status":"Active","city":"Nagoya","country":"Japan","name":"GDG Nagoya","lon":136.91000366210938,"lat":35.150001525878906},{"type":2,"id":23806781,"urlname":"GDG-Kyoto","status":"Active","city":"Kyoto","country":"Japan","name":"GDG Kyoto","lon":135.75,"lat":35.0099983215332},{"type":2,"id":32548510,"urlname":"GDG-Osaka","status":"Active","city":"Osaka","country":"Japan","name":"GDG Osaka","lon":135.5,"lat":34.68000030517578},{"type":2,"id":23802629,"urlname":"GDG-Kobe","status":"Active","city":"Kobe","country":"Japan","name":"GDG Kobe","lon":135.1699981689453,"lat":34.68000030517578},{"type":2,"id":31726504,"urlname":"GDG-Cloud-Shimane","status":"Active","city":"Matsue","country":"Japan","name":"GDG Cloud Shimane","lon":133.0399932861328,"lat":35.47999954223633},{"type":2,"id":23880286,"urlname":"meetup-group-EtXRvVqn","status":"Active","city":"Okayama","country":"Japan","name":"GDG Okayama","lon":133.9199981689453,"lat":34.66999816894531},{"type":2,"id":23789667,"urlname":"GDG-Shikoku","status":"Active","city":"Takamatsu","country":"Japan","name":"GDG Shikoku","lon":134.0399932861328,"lat":34.34000015258789},{"type":2,"id":33839364,"urlname":"GDG-Yamaguchi","status":"Active","city":"Yamaguchi","country":"Japan","name":"GDG Yamaguchi","lon":131.47999572753906,"lat":34.18000030517578},{"type":2,"id":32055548,"urlname":"GDGCloudOita","status":"Active","city":"Oita","country":"Japan","name":"GDG Cloud Oita ♨","lon":131.60000610351562,"lat":33.2400016784668},{"type":2,"id":31725786,"urlname":"GDGCloudFukuoka","status":"Active","city":"Fukuoka","country":"Japan","name":"GDG Cloud Fukuoka","lon":130.41000366210938,"lat":33.59000015258789},{"type":2,"id":23972513,"urlname":"GDG-Kyushu","status":"Active","city":"Fukuoka","country":"Japan","name":"GDG Kyushu (GDG九州)","lon":130.41000366210938,"lat":33.59000015258789},{"type":2,"id":31734621,"urlname":"GCPUG-鹿児島","status":"Delisted","city":"Kagoshima","country":"Japan","name":"GCPUG 鹿児島","lon":130.55999755859375,"lat":31.59000015258789},{"type":2,"id":25034607,"urlname":"GDG-Amman","status":"Active","city":"´Amman","country":"Jordan","name":"GDG Amman","lon":35.93000030517578,"lat":31.950000762939453},{"type":2,"id":29761912,"urlname":"GDG-Astana","status":"Active","city":"Astana","country":"Kazakhstan","name":"GDG Nur-Sultan (Astana)","lon":71.47000122070312,"lat":51.16999816894531},{"type":2,"id":23450812,"urlname":"GDG-Almaty","status":"Active","city":"Almaty","country":"Kazakhstan","name":"GDG Almaty","lon":76.91999816894531,"lat":43.31999969482422},{"type":2,"id":25035897,"urlname":"GDG-RongoVarsity","status":"Active","city":"Rongo","country":"Kenya","name":"GDG Rongo Varsity","lon":34.599998474121094,"lat":-0.7699999809265137},{"type":2,"id":23484926,"urlname":"DSCMMUST","status":"Delisted","city":"Kakamega","country":"Kenya","name":"DSC MMUST","lon":34.72999954223633,"lat":0.28999999165534973},{"type":2,"id":22805087,"urlname":"GDGKisumu","status":"Active","city":"Kisumu","country":"Kenya","name":"GDG Kisumu","lon":34.75,"lat":-0.09000000357627869},{"type":2,"id":25045324,"urlname":"GDG-Kisii","status":"Active","city":"Kisii","country":"Kenya","name":"GDG Kisii","lon":34.7599983215332,"lat":-0.6700000166893005},{"type":2,"id":23407028,"urlname":"gdgeldoret","status":"Active","city":"Eldoret","country":"Kenya","name":"GDG Eldoret","lon":35.27000045776367,"lat":0.5199999809265137},{"type":2,"id":26715058,"urlname":"DSCKabarak","status":"Active","city":"Nakuru","country":"Kenya","name":"DSC Kabarak","lon":36.06999969482422,"lat":-0.2800000011920929},{"type":2,"id":27762564,"urlname":"DSC-Multimedia-University-of-Kenya","status":"Active","city":"Nairobi","country":"Kenya","name":"DSC Multimedia University of Kenya","lon":36.81999969482422,"lat":-1.2899999618530273},{"type":2,"id":26070674,"urlname":"GDG-UoN","status":"Active","city":"Nairobi","country":"Kenya","name":"DSC UoN","lon":36.81999969482422,"lat":-1.2899999618530273},{"type":2,"id":24500676,"urlname":"GDG-DSC-JKUAT","status":"Active","city":"Nairobi","country":"Kenya","name":"GDG\/DSC JKUAT","lon":36.81999969482422,"lat":-1.2899999618530273},{"type":2,"id":23417266,"urlname":"DSC-Strathmore","status":"Delisted","city":"Nairobi","country":"Kenya","name":"DSC Strathmore","lon":36.81999969482422,"lat":-1.2899999618530273},{"type":2,"id":23401531,"urlname":"GDG-Nairobi","status":"Active","city":"Nairobi","country":"Kenya","name":"GDG  Nairobi","lon":36.81999969482422,"lat":-1.2899999618530273},{"type":2,"id":23439525,"urlname":"GDG_Nyeri","status":"Active","city":"Nyeri","country":"Kenya","name":"GDG Nyeri","lon":36.95000076293945,"lat":-0.4099999964237213},{"type":2,"id":23665423,"urlname":"GDG-Mombasa","status":"Active","city":"Mombasa","country":"Kenya","name":"GDG Mombasa","lon":39.65999984741211,"lat":-4.039999961853027},{"type":2,"id":31639788,"urlname":"GDG-Golang-Korea","status":"Active","city":"Seoul","country":"Korea (South)","name":"GDG Golang Korea","lon":126.98999786376953,"lat":37.560001373291016},{"type":2,"id":25500111,"urlname":"GDG-Cloud-Korea","status":"Active","city":"Seoul","country":"Korea (South)","name":"GDG Cloud Korea","lon":126.98999786376953,"lat":37.560001373291016},{"type":2,"id":23692636,"urlname":"GDG-Campus","status":"Active","city":"Seoul","country":"Korea (South)","name":"GDG Campus Korea","lon":126.98999786376953,"lat":37.560001373291016},{"type":2,"id":23435081,"urlname":"GDG-Korea-Android","status":"Active","city":"Seoul","country":"Korea (South)","name":"GDG Korea Android","lon":126.98999786376953,"lat":37.560001373291016},{"type":2,"id":23434543,"urlname":"GDG-Seoul","status":"Active","city":"Seoul","country":"Korea (South)","name":"GDG Seoul","lon":126.98999786376953,"lat":37.560001373291016},{"type":2,"id":23433167,"urlname":"GDG-WebTech","status":"Active","city":"Seoul","country":"Korea (South)","name":"GDG Korea WebTech","lon":126.98999786376953,"lat":37.560001373291016},{"type":2,"id":27593726,"urlname":"pangyo-gdg","status":"Active","city":"Seongnam","country":"Korea (South)","name":"GDG Pangyo","lon":127.1500015258789,"lat":37.439998626708984},{"type":2,"id":28352575,"urlname":"GDG-Guro","status":"Active","city":"Kwangmyeong","country":"Korea (South)","name":"GDG Guro","lon":126.83999633789062,"lat":37.45000076293945},{"type":2,"id":28345208,"urlname":"GDG-SongDo","status":"Active","city":"Incheon","country":"Korea (South)","name":"GDG SongDo","lon":126.63999938964844,"lat":37.47999954223633},{"type":2,"id":23443875,"urlname":"GDG-Incheon","status":"Active","city":"Incheon","country":"Korea (South)","name":"GDG Incheon","lon":126.63999938964844,"lat":37.47999954223633},{"type":2,"id":28345785,"urlname":"gdg-suwon","status":"Active","city":"Suwon","country":"Korea (South)","name":"GDG Suwon","lon":127.01000213623047,"lat":37.2599983215332},{"type":2,"id":28343615,"urlname":"GDG-Daejeon","status":"Active","city":"Taejeon","country":"Korea (South)","name":"GDG Daejeon","lon":127.43000030517578,"lat":36.33000183105469},{"type":2,"id":31224633,"urlname":"GDG-Cloud-Busan-Meetup","status":"Active","city":"Pusan","country":"Korea (South)","name":"GDG Cloud Busan Meetup","lon":129.02999877929688,"lat":35.11000061035156},{"type":2,"id":23449184,"urlname":"GDG-Busan","status":"Active","city":"Pusan","country":"Korea (South)","name":"GDG Busan","lon":129.02999877929688,"lat":35.11000061035156},{"type":2,"id":29720276,"urlname":"GDG-Gwangju","status":"Active","city":"Kwangju","country":"Korea (South)","name":"GDG Gwangju","lon":126.91000366210938,"lat":35.15999984741211},{"type":2,"id":30847360,"urlname":"GDG-Jeju","status":"Active","city":"Jeju","country":"Korea (South)","name":"GDG Jeju","lon":126.5,"lat":33.4900016784668},{"type":2,"id":31677306,"urlname":"GDG-Prishtina","status":"Delisted","city":"Prishtinë","country":"Kosovo","name":"GDG Prishtina","lon":21.170000076293945,"lat":42.650001525878906},{"type":2,"id":25505369,"urlname":"gdgwtmkuwait","status":"Active","city":"al-Kuwayt","country":"Kuwait","name":"GDG Kuwait City & WTM","lon":47.970001220703125,"lat":29.329999923706055},{"type":2,"id":27395950,"urlname":"GDG-Bishkek","status":"Active","city":"Bishkek","country":"Kyrgyzstan","name":"GDG Bishkek","lon":74.56999969482422,"lat":42.869998931884766},{"type":2,"id":24293372,"urlname":"GDGVientiane","status":"Active","city":"Vientiane","country":"Laos","name":"GDG Vientiane","lon":102.62999725341797,"lat":17.979999542236328},{"type":2,"id":19730024,"urlname":"GDG-Riga","status":"Active","city":"Riga","country":"Latvia","name":"Google Developer Group Riga","lon":24.1299991607666,"lat":56.970001220703125},{"type":2,"id":23838726,"urlname":"GDG-Daugavpils","status":"Active","city":"Daugavpils","country":"Latvia","name":"GDG Daugavpils","lon":26.510000228881836,"lat":55.880001068115234},{"type":2,"id":27967586,"urlname":"GDG-Rezekne","status":"Delisted","city":"Rêzekne","country":"Latvia","name":"GDG Rezekne","lon":27.31999969482422,"lat":56.5099983215332},{"type":2,"id":23413592,"urlname":"GDG-Coast-Lebanon","status":"Active","city":"Beirut","country":"Lebanon","name":"GDG Coast Lebanon","lon":35.5,"lat":33.880001068115234},{"type":2,"id":33561047,"urlname":"GDG-North-Lebanon","status":"Active","city":"Tripoli","country":"Lebanon","name":"GDG North Lebanon","lon":35.84000015258789,"lat":34.43000030517578},{"type":2,"id":26162424,"urlname":"gdgmonrovia","status":"Active","city":"Monrovia","country":"Liberia","name":"GDG Monrovia","lon":-10.800000190734863,"lat":6.309999942779541},{"type":2,"id":23720491,"urlname":"GDG-Kaunas","status":"Delisted","city":"Kaunas","country":"Lithuania","name":"GDG Kaunas","lon":23.90999984741211,"lat":54.900001525878906},{"type":2,"id":32685271,"urlname":"GDG-Cloud-Vilnius","status":"Delisted","city":"Vilnius","country":"Lithuania","name":"GDG Cloud Vilnius","lon":25.270000457763672,"lat":54.70000076293945},{"type":2,"id":26825483,"urlname":"GDG-Vilnius","status":"Active","city":"Vilnius","country":"Lithuania","name":"GDG Vilnius","lon":25.270000457763672,"lat":54.70000076293945},{"type":2,"id":29548351,"urlname":"GDG-Luxembourg","status":"Active","city":"Luxembourg","country":"Luxembourg","name":"GDG Luxembourg","lon":6.119999885559082,"lat":49.619998931884766},{"type":2,"id":31429244,"urlname":"Google-Developer-Group-Skopje","status":"Active","city":"Skopje","country":"Macedonia","name":"Google Developer Group Skopje","lon":21.469999313354492,"lat":42},{"type":2,"id":27619255,"urlname":"GDG-Antananarivo","status":"Active","city":"Antananarivo","country":"Madagascar","name":"GDG Antananarivo","lon":47.5099983215332,"lat":-18.889999389648438},{"type":2,"id":26578252,"urlname":"GDG-Blantyre","status":"Active","city":"Blantyre","country":"Malawi","name":"GDG Blantyre","lon":34.9900016784668,"lat":-15.789999961853027},{"type":2,"id":24806585,"urlname":"GDG-George-Town","status":"Active","city":"Georgetown","country":"Malaysia","name":"GDG George Town","lon":100.30999755859375,"lat":5.369999885559082},{"type":2,"id":27952284,"urlname":"gdg-cloud-kl","status":"Active","city":"Kuala Lumpur","country":"Malaysia","name":"GDG Cloud KL","lon":101.70999908447266,"lat":3.1600000858306885},{"type":2,"id":22945150,"urlname":"GDGKualaLumpur","status":"Active","city":"Kuala Lumpur","country":"Malaysia","name":"Google Developer Group Kuala Lumpur - GDGKL","lon":101.70999908447266,"lat":3.1600000858306885},{"type":2,"id":23402410,"urlname":"GDG-Bamako","status":"Active","city":"Bamako","country":"Mali","name":"GDG Bamako","lon":-7.989999771118164,"lat":12.649999618530273},{"type":2,"id":23345717,"urlname":"GDGMalta","status":"Active","city":"Valletta","country":"Malta","name":"GDG Malta","lon":14.520000457763672,"lat":35.90999984741211},{"type":2,"id":26305866,"urlname":"GDG-Nouakchott","status":"Active","city":"Nouakchott","country":"Mauritania","name":"GDG Nouakchott","lon":-15.979999542236328,"lat":18.09000015258789},{"type":2,"id":26046031,"urlname":"GDG-Mauritius","status":"Active","city":"Flic en Flac","country":"Mauritius","name":"GDG Mauritius","lon":57.369998931884766,"lat":-20.270000457763672},{"type":2,"id":30355359,"urlname":"GDG-Hermosillo","status":"Active","city":"Hermosillo","country":"Mexico","name":"GDG Hermosillo","lon":-110.97000122070312,"lat":29.06999969482422},{"type":2,"id":23406433,"urlname":"GDGChetumal","status":"Active","city":"Chetumal","country":"Mexico","name":"GDG Chetumal","lon":-88.29000091552734,"lat":18.5},{"type":2,"id":25328337,"urlname":"GDGCancun","status":"Active","city":"Cancun","country":"Mexico","name":"GDGCancún","lon":-92.4800033569336,"lat":16.920000076293945},{"type":2,"id":31924604,"urlname":"GDGCampeche","status":"Active","city":"Campeche","country":"Mexico","name":"GDG San Francisco de Campeche","lon":-90.52999877929688,"lat":19.850000381469727},{"type":2,"id":23338477,"urlname":"GDG-Villahermosa","status":"Active","city":"Villahermosa","country":"Mexico","name":"GDG Villahermosa","lon":-92.91999816894531,"lat":17.979999542236328},{"type":2,"id":33646154,"urlname":"GDG-ZONGOLICA","status":"Active","city":"Zongólica","country":"Mexico","name":"GDG ZONGOLICA","lon":-96.9800033569336,"lat":18.670000076293945},{"type":2,"id":28363069,"urlname":"GDG-Orizaba","status":"Active","city":"Orizaba","country":"Mexico","name":"GDG Orizaba","lon":-97.0999984741211,"lat":18.829999923706055},{"type":2,"id":32099530,"urlname":"GDG-Xalapa","status":"Active","city":"Xalapa","country":"Mexico","name":"GDG Xalapa","lon":-96.91999816894531,"lat":19.530000686645508},{"type":2,"id":19015109,"urlname":"meetup-group-yHVoufEQ","status":"Active","city":"Misantla","country":"Mexico","name":"GDG MISANTLA","lon":-96.83000183105469,"lat":19.93000030517578},{"type":2,"id":24339196,"urlname":"GDG-IPN","status":"Active","city":"México City","country":"Mexico","name":"GDG IPN","lon":-99.13999938964844,"lat":19.43000030517578},{"type":2,"id":23365298,"urlname":"GDG-UNAM","status":"Active","city":"México City","country":"Mexico","name":"GDG UNAM","lon":-99.13999938964844,"lat":19.43000030517578},{"type":2,"id":23055832,"urlname":"cloudmx","status":"Active","city":"México City","country":"Mexico","name":"GDG CloudMX","lon":-99.13999938964844,"lat":19.43000030517578},{"type":2,"id":18635372,"urlname":"GDGAndroidtitlan","status":"Active","city":"México City","country":"Mexico","name":"GDG Android Titlan","lon":-99.13999938964844,"lat":19.43000030517578},{"type":2,"id":18560311,"urlname":"GDGWonderCoders","status":"Active","city":"México City","country":"Mexico","name":"GDG WonderCoders","lon":-99.13999938964844,"lat":19.43000030517578},{"type":2,"id":18341121,"urlname":"GDGPolymerMexico","status":"Active","city":"México City","country":"Mexico","name":"GDG Polymer Mexico","lon":-99.13999938964844,"lat":19.43000030517578},{"type":2,"id":17761162,"urlname":"gdg-cdmx","status":"Active","city":"México City","country":"Mexico","name":"GDG Ciudad de México","lon":-99.13999938964844,"lat":19.43000030517578},{"type":2,"id":28195843,"urlname":"GDG-espanol","status":"Active","city":"Querétaro","country":"Mexico","name":"GDG Querétaro City","lon":-100.4000015258789,"lat":20.59000015258789},{"type":2,"id":32346854,"urlname":"GDG-Morelia","status":"Active","city":"Morelia","country":"Mexico","name":"GDG Morelia","lon":-101.18000030517578,"lat":19.719999313354492},{"type":2,"id":31862823,"urlname":"GDG-Celaya","status":"Active","city":"Celaya","country":"Mexico","name":"GDG Celaya","lon":-100.81999969482422,"lat":20.520000457763672},{"type":2,"id":28135977,"urlname":"GDGGuanajuato","status":"Active","city":"Guanajuato","country":"Mexico","name":"GDG Guanajuato","lon":-101.27999877929688,"lat":21.020000457763672},{"type":2,"id":20235320,"urlname":"GDG-GDL-Android","status":"Active","city":"Guadalajara","country":"Mexico","name":"GDG Guadalajara Android","lon":-103.3499984741211,"lat":20.670000076293945},{"type":2,"id":28372085,"urlname":"Google-Cloud-Developer-Community-Zapopan","status":"Delisted","city":"Zapopan","country":"Mexico","name":"Google Cloud Developer Community Zapopan","lon":-103.4000015258789,"lat":20.719999313354492},{"type":2,"id":17744402,"urlname":"GDG-Monterrey","status":"Active","city":"Monterrey","country":"Mexico","name":"GDG Monterrey","lon":-100.31999969482422,"lat":25.670000076293945},{"type":2,"id":23332399,"urlname":"GDG-InCode","status":"Active","city":"Durango","country":"Mexico","name":"GDG InCode","lon":-104.66999816894531,"lat":24.030000686645508},{"type":2,"id":33812368,"urlname":"GDG-Culiacan","status":"Active","city":"Culiacán","country":"Mexico","name":"GDG Culiacán","lon":-107.38999938964844,"lat":24.799999237060547},{"type":2,"id":31304537,"urlname":"GDG-Chisinau","status":"Delisted","city":"Chisinau","country":"Moldova","name":"GDG Chisinau","lon":28.829999923706055,"lat":47.029998779296875},{"type":2,"id":30569007,"urlname":"GDG-Ulaanbaatar","status":"Active","city":"Ulaanbaatar","country":"Mongolia","name":"GDG Ulaanbaatar","lon":106.91000366210938,"lat":47.93000030517578},{"type":2,"id":29772477,"urlname":"GDG-Podgorica","status":"Delisted","city":"Podgorica","country":"Montenegro","name":"GDG Podgorica","lon":19.280000686645508,"lat":42.470001220703125},{"type":2,"id":24983336,"urlname":"GDGAgadir","status":"Active","city":"Agadir","country":"Morocco","name":"GDG Agadir","lon":-9.609999656677246,"lat":30.420000076293945},{"type":2,"id":24842408,"urlname":"GDG-Settat","status":"Active","city":"Sattat","country":"Morocco","name":"GDG Settat","lon":-7.619999885559082,"lat":33.0099983215332},{"type":2,"id":23739715,"urlname":"GDGCasablanca","status":"Active","city":"Casablanca","country":"Morocco","name":"GDG Casablanca","lon":-7.579999923706055,"lat":33.529998779296875},{"type":2,"id":33730312,"urlname":"GDG-Beni-Mellal","status":"Active","city":"Bani Mallal","country":"Morocco","name":"GDG Beni-Mellal","lon":-6.369999885559082,"lat":32.349998474121094},{"type":2,"id":23485972,"urlname":"gdgtangier","status":"Active","city":"Tanjah","country":"Morocco","name":"GDG Tangier","lon":-5.809999942779541,"lat":35.790000915527344},{"type":2,"id":23425802,"urlname":"GDG-Maputo","status":"Active","city":"Maputo","country":"Mozambique","name":"GDG Maputo","lon":32.56999969482422,"lat":-25.950000762939453},{"type":2,"id":28201296,"urlname":"GDG-TETE","status":"Active","city":"Tete","country":"Mozambique","name":"GDG Tete","lon":33.58000183105469,"lat":-16.170000076293945},{"type":2,"id":23400312,"urlname":"Beira-GDG","status":"Active","city":"Beira","country":"Mozambique","name":"GDG-Beira","lon":34.84000015258789,"lat":-19.829999923706055},{"type":2,"id":24349851,"urlname":"GDGYangon","status":"Active","city":"Yangon","country":"Myanmar","name":"GDG Yangon","lon":96.1500015258789,"lat":16.790000915527344},{"type":2,"id":33787141,"urlname":"GDG-Windhoek","status":"Active","city":"Windhoek","country":"Namibia","name":"GDG WINDHOEK","lon":17.09000015258789,"lat":-22.559999465942383},{"type":2,"id":23465643,"urlname":"GDG-Kathmandu","status":"Active","city":"Kathmandu","country":"Nepal","name":"GDG Kathmandu","lon":85.30999755859375,"lat":27.709999084472656},{"type":2,"id":23353863,"urlname":"gdgbirgunj","status":"Active","city":"Birganj","country":"Nepal","name":"GDG Birgunj","lon":84.87000274658203,"lat":27.020000457763672},{"type":2,"id":22728021,"urlname":"gdg-nl","status":"Active","city":"Amsterdam","country":"Netherlands","name":"GDG Netherlands","lon":4.889999866485596,"lat":52.369998931884766},{"type":2,"id":19190507,"urlname":"gdgcloudnl","status":"Active","city":"Amsterdam","country":"Netherlands","name":"GDG Cloud Netherlands","lon":4.889999866485596,"lat":52.369998931884766},{"type":2,"id":2687312,"urlname":"dutch-aug","status":"Active","city":"Utrecht","country":"Netherlands","name":"The Dutch Android User Group","lon":5.110000133514404,"lat":52.099998474121094},{"type":2,"id":28710770,"urlname":"Google-Developer-Group-Cloud-Wageningen","status":"Delisted","city":"Wageningen","country":"Netherlands","name":"Google Developer Group Cloud Wageningen","lon":5.670000076293945,"lat":51.97999954223633},{"type":2,"id":17782712,"urlname":"GDG-Wellington","status":"Active","city":"Wellington","country":"New Zealand","name":"GDG Wellington","lon":174.77999877929688,"lat":-41.279998779296875},{"type":2,"id":25255792,"urlname":"Auckland-Google-Cloud-Meetup","status":"Active","city":"Auckland","country":"New Zealand","name":"GDG Cloud Auckland","lon":174.75999450683594,"lat":-36.849998474121094},{"type":2,"id":16249912,"urlname":"GDGAuckland","status":"Active","city":"Auckland","country":"New Zealand","name":"GDG Auckland","lon":174.75999450683594,"lat":-36.849998474121094},{"type":2,"id":32553229,"urlname":"GDG-Christchurch","status":"Active","city":"Christchurch","country":"New Zealand","name":"GDG Christchurch","lon":172.63999938964844,"lat":-43.529998779296875},{"type":2,"id":23332296,"urlname":"gdgmanagua","status":"Active","city":"Managua","country":"Nicaragua","name":"GDG Managua","lon":-86.2699966430664,"lat":12.149999618530273},{"type":2,"id":27825352,"urlname":"GDG-Niamey","status":"Active","city":"Niamey","country":"Niger","name":"GDG Niamey","lon":2.119999885559082,"lat":13.520000457763672},{"type":2,"id":33287212,"urlname":"GDG-Abeokuta","status":"Active","city":"Abeokuta","country":"Nigeria","name":"GDG Abeokuta","lon":3.3499999046325684,"lat":7.159999847412109},{"type":2,"id":30617515,"urlname":"GDG-Ojo-Festac","status":"Active","city":"Lagos","country":"Nigeria","name":"GDG Ojo-Festac","lon":3.4700000286102295,"lat":6.449999809265137},{"type":2,"id":29731538,"urlname":"gdg_ikorodu","status":"Active","city":"Lagos","country":"Nigeria","name":"GDG-Ikorodu","lon":3.4700000286102295,"lat":6.449999809265137},{"type":2,"id":27601948,"urlname":"gdg-Ajah","status":"Active","city":"Lagos","country":"Nigeria","name":"GDG Ajah","lon":3.4700000286102295,"lat":6.449999809265137},{"type":2,"id":26150649,"urlname":"DSC_Gracepoly","status":"Delisted","city":"Lagos","country":"Nigeria","name":"DSC Gracepoly","lon":3.4700000286102295,"lat":6.449999809265137},{"type":2,"id":25572053,"urlname":"GDG-Cloud-Lagos","status":"Active","city":"Lagos","country":"Nigeria","name":"GDG Cloud Lagos","lon":3.4700000286102295,"lat":6.449999809265137},{"type":2,"id":23405517,"urlname":"gdg-lagos","status":"Active","city":"Lagos","country":"Nigeria","name":"GDG Lagos","lon":3.4700000286102295,"lat":6.449999809265137},{"type":2,"id":23399725,"urlname":"GDG-Unilag","status":"Active","city":"Lagos","country":"Nigeria","name":"DSC Unilag","lon":3.4700000286102295,"lat":6.449999809265137},{"type":2,"id":23398307,"urlname":"GDG-Ibadan","status":"Active","city":"Ibadan","country":"Nigeria","name":"GDG Ibadan","lon":3.930000066757202,"lat":7.380000114440918},{"type":2,"id":33197769,"urlname":"gdg_bk","status":"Active","city":"Birnin Kebbi","country":"Nigeria","name":"GDG Birnin-Kebbi","lon":4.190000057220459,"lat":12.460000038146973},{"type":2,"id":30596117,"urlname":"GDG-Ogbomoso","status":"Active","city":"Ogbomosho","country":"Nigeria","name":"GDG Ogbomoso","lon":4.179999828338623,"lat":8.079999923706055},{"type":2,"id":30995134,"urlname":"GDG-Ilorin","status":"Active","city":"Ilorin","country":"Nigeria","name":"GDG Ilorin","lon":4.53000020980835,"lat":8.5},{"type":2,"id":23523578,"urlname":"GDG-Akoko","status":"Active","city":"Ondo","country":"Nigeria","name":"GDG Akoko","lon":4.840000152587891,"lat":7.090000152587891},{"type":2,"id":27911087,"urlname":"gdgsokoto","status":"Active","city":"Sokoto","country":"Nigeria","name":"GDG Sokoto","lon":5.239999771118164,"lat":13.069999694824219},{"type":2,"id":27387975,"urlname":"GDG-Cloud-Ado-Ekiti","status":"Active","city":"Ado","country":"Nigeria","name":"GDG Cloud Ado-Ekiti","lon":5.269999980926514,"lat":7.670000076293945},{"type":2,"id":23402077,"urlname":"gdgadoekiti","status":"Active","city":"Ado","country":"Nigeria","name":"GDG Ado-Ekiti","lon":5.269999980926514,"lat":7.670000076293945},{"type":2,"id":23401010,"urlname":"gdgbenin","status":"Active","city":"Benin","country":"Nigeria","name":"GDG Benin","lon":5.619999885559082,"lat":6.340000152587891},{"type":2,"id":33636632,"urlname":"GDG-Sapele","status":"Active","city":"Sapele","country":"Nigeria","name":"GDG Sapele","lon":5.670000076293945,"lat":5.900000095367432},{"type":2,"id":27681479,"urlname":"GDG-Warri","status":"Active","city":"Warri","country":"Nigeria","name":"GDG Warri","lon":5.75,"lat":5.510000228881836},{"type":2,"id":27783693,"urlname":"GDG-Gusau","status":"Active","city":"Gusau","country":"Nigeria","name":"GDG Gusau","lon":6.659999847412109,"lat":12.170000076293945},{"type":2,"id":30595116,"urlname":"GDG-Yenagoa","status":"Active","city":"Yenagoa","country":"Nigeria","name":"GDG Yenagoa","lon":6.25,"lat":4.929999828338623},{"type":2,"id":33618344,"urlname":"GDG-Cloud-Minna","status":"Active","city":"Minna","country":"Nigeria","name":"GDG Cloud, Minna","lon":6.550000190734863,"lat":9.600000381469727},{"type":2,"id":23441007,"urlname":"GDGMinna","status":"Active","city":"Minna","country":"Nigeria","name":"GDG Minna","lon":6.550000190734863,"lat":9.600000381469727},{"type":2,"id":27823335,"urlname":"dscibbul","status":"Active","city":"Lapai","country":"Nigeria","name":"DSC IBBUL","lon":6.570000171661377,"lat":9.039999961853027},{"type":2,"id":31141730,"urlname":"GDG-Onitsha","status":"Active","city":"Onitsha","country":"Nigeria","name":"GDG Onitsha","lon":6.78000020980835,"lat":6.159999847412109},{"type":2,"id":33651707,"urlname":"GDG-Gwagwalada","status":"Active","city":"Gwagwalada","country":"Nigeria","name":"GDG Gwagwalada","lon":7.099999904632568,"lat":8.949999809265137},{"type":2,"id":33730830,"urlname":"GDG-Mpape","status":"Active","city":"Abuja","country":"Nigeria","name":"GDG Mpape","lon":7.170000076293945,"lat":9.180000305175781},{"type":2,"id":24889224,"urlname":"GDG-Abuja","status":"Active","city":"Abuja","country":"Nigeria","name":"GDG Abuja","lon":7.170000076293945,"lat":9.180000305175781},{"type":2,"id":33206380,"urlname":"gdgowerri","status":"Active","city":"Owerri","country":"Nigeria","name":"GDG Owerri","lon":7.019999980926514,"lat":5.5},{"type":2,"id":33424770,"urlname":"GDG-Oyigbo","status":"Active","city":"Port Harcourt","country":"Nigeria","name":"GDG Oyigbo","lon":7,"lat":4.78000020980835},{"type":2,"id":29393439,"urlname":"Google-Developer-Group-Cloud-Port-Harcourt","status":"Active","city":"Port Harcourt","country":"Nigeria","name":"GDG Cloud Port Harcourt","lon":7,"lat":4.78000020980835},{"type":2,"id":23456418,"urlname":"GDG-Port-Harcourt","status":"Active","city":"Port Harcourt","country":"Nigeria","name":"GDG Port Harcourt","lon":7,"lat":4.78000020980835},{"type":2,"id":27239057,"urlname":"gdgkaf","status":"Active","city":"Kaduna","country":"Nigeria","name":"GDG Kafanchan","lon":7.440000057220459,"lat":10.520000457763672},{"type":2,"id":27099624,"urlname":"GCDCKaduna","status":"Active","city":"Kaduna","country":"Nigeria","name":"GDG Cloud Kaduna","lon":7.440000057220459,"lat":10.520000457763672},{"type":2,"id":23400848,"urlname":"GDG-Kaduna-City","status":"Active","city":"Kaduna","country":"Nigeria","name":"GDG Kaduna City","lon":7.440000057220459,"lat":10.520000457763672},{"type":2,"id":23874264,"urlname":"GDG-Katsina","status":"Active","city":"Katsina","country":"Nigeria","name":"GDG Katsina","lon":7.599999904632568,"lat":13},{"type":2,"id":27244747,"urlname":"GDG-Bonny-island","status":"Active","city":"Bonny","country":"Nigeria","name":"GDG Bonny Island","lon":7.170000076293945,"lat":4.429999828338623},{"type":2,"id":27239187,"urlname":"GDG-Awka","status":"Active","city":"Anambra","country":"Nigeria","name":"GDG Awka","lon":7.400000095367432,"lat":7.269999980926514},{"type":2,"id":23746237,"urlname":"GDG-Oko","status":"Active","city":"Anambra","country":"Nigeria","name":"GDG Oko","lon":7.400000095367432,"lat":7.269999980926514},{"type":2,"id":23590320,"urlname":"GDG-Njikoka","status":"Active","city":"Anambra","country":"Nigeria","name":"GDG Njikoka","lon":7.400000095367432,"lat":7.269999980926514},{"type":2,"id":27599313,"urlname":"GDG-Zaria","status":"Active","city":"Zaria","country":"Nigeria","name":"GDG Zaria","lon":7.710000038146973,"lat":11.079999923706055},{"type":2,"id":23474376,"urlname":"GDG-Aba","status":"Active","city":"Aba","country":"Nigeria","name":"GDG Aba","lon":7.349999904632568,"lat":5.099999904632568},{"type":2,"id":23403443,"urlname":"GDG-ENUGU-MEETUP","status":"Active","city":"Enugu","country":"Nigeria","name":"GDG Enugu","lon":7.5,"lat":6.329999923706055},{"type":2,"id":33587400,"urlname":"GDG-IGBOLOGUN","status":"Active","city":"Umuahia","country":"Nigeria","name":"GDG Igbologun","lon":7.480000019073486,"lat":5.539999961853027},{"type":2,"id":27485223,"urlname":"GDG-Umuahia","status":"Active","city":"Umuahia","country":"Nigeria","name":"GDG Umuahia","lon":7.480000019073486,"lat":5.539999961853027},{"type":2,"id":27242384,"urlname":"GDGKeffi","status":"Active","city":"Keffi","country":"Nigeria","name":"GDG Keffi","lon":7.869999885559082,"lat":8.84000015258789},{"type":2,"id":23412832,"urlname":"GDG-Uyo","status":"Active","city":"Uyo","country":"Nigeria","name":"GDG Uyo","lon":7.849999904632568,"lat":5.010000228881836},{"type":2,"id":33125897,"urlname":"GDG-Eket","status":"Active","city":"Eket","country":"Nigeria","name":"GDG Eket","lon":7.929999828338623,"lat":4.630000114440918},{"type":2,"id":31108226,"urlname":"gdgcloudKano","status":"Active","city":"Kano","country":"Nigeria","name":"GDG Cloud  Kano","lon":8.520000457763672,"lat":12},{"type":2,"id":24253531,"urlname":"GDG-Kano","status":"Active","city":"Kano","country":"Nigeria","name":"GDG Kano","lon":8.520000457763672,"lat":12},{"type":2,"id":23460145,"urlname":"dscbuk","status":"Active","city":"Kano","country":"Nigeria","name":"Developers Student Club, Bayero University Kano - DSCBUK","lon":8.520000457763672,"lat":12},{"type":2,"id":23400121,"urlname":"gdg-lafia","status":"Active","city":"Lafia","country":"Nigeria","name":"GDG Lafia","lon":8.520000457763672,"lat":8.489999771118164},{"type":2,"id":26703042,"urlname":"GDG-Calabar","status":"Active","city":"Calabar","country":"Nigeria","name":"GDG Calabar","lon":8.3100004196167,"lat":4.960000038146973},{"type":2,"id":27239953,"urlname":"GDG-Makurdi","status":"Active","city":"Makurdi","country":"Nigeria","name":"GDG Makurdi","lon":8.529999732971191,"lat":7.730000019073486},{"type":2,"id":33951470,"urlname":"GDG-Otukpo","status":"Active","city":"Otukpo","country":"Nigeria","name":"GDG Otukpo","lon":8.670000076293945,"lat":6.820000171661377},{"type":2,"id":23417703,"urlname":"GDG-JOS","status":"Active","city":"Jos","country":"Nigeria","name":"GDG Jos","lon":8.890000343322754,"lat":9.930000305175781},{"type":2,"id":33113911,"urlname":"GDG-Gboko","status":"Active","city":"Gboko","country":"Nigeria","name":"GDG Gboko","lon":8.899999618530273,"lat":7.329999923706055},{"type":2,"id":23404777,"urlname":"GDG-Dutse","status":"Active","city":"Dutse","country":"Nigeria","name":"GDG Dutse","lon":9.329999923706055,"lat":11.800000190734863},{"type":2,"id":27391131,"urlname":"GDG-Cloud-Bauchi","status":"Active","city":"Bauchi","country":"Nigeria","name":"GDG Cloud Bauchi","lon":9.84000015258789,"lat":10.3100004196167},{"type":2,"id":23402665,"urlname":"gdgbauchi","status":"Active","city":"Bauchi","country":"Nigeria","name":"GDG Bauchi","lon":9.84000015258789,"lat":10.3100004196167},{"type":2,"id":30954164,"urlname":"GDG-Gombe","status":"Active","city":"Gombe","country":"Nigeria","name":"GDG Gombe","lon":11.170000076293945,"lat":10.289999961853027},{"type":2,"id":23441321,"urlname":"GDGJalingo","status":"Active","city":"Jalingo","country":"Nigeria","name":"GDG Jalingo","lon":11.369999885559082,"lat":8.890000343322754},{"type":2,"id":27481637,"urlname":"gdgyola","status":"Active","city":"Jimeta","country":"Nigeria","name":"GDG Yola","lon":12.460000038146973,"lat":9.279999732971191},{"type":2,"id":33587051,"urlname":"GDG-Maiduguri","status":"Active","city":"Maiduguri","country":"Nigeria","name":"GDG Maiduguri","lon":13.15999984741211,"lat":11.850000381469727},{"type":2,"id":17752262,"urlname":"GDGBergen","status":"Active","city":"Bergen","country":"Norway","name":"GDG Bergen","lon":5.340000152587891,"lat":60.380001068115234},{"type":2,"id":33048015,"urlname":"GDG-Stavanger","status":"Active","city":"Stavanger","country":"Norway","name":"GDG Stavanger","lon":5.710000038146973,"lat":58.970001220703125},{"type":2,"id":27549955,"urlname":"Google-Developer-Group-Sorlandet-GDG","status":"Active","city":"Kristiansand","country":"Norway","name":"Google Developer Group Sørlandet (GDG)","lon":7.989999771118164,"lat":58.150001525878906},{"type":2,"id":10509002,"urlname":"GDG-Trondheim","status":"Active","city":"Trondheim","country":"Norway","name":"Google Developer Group Trondheim (GDG)","lon":10.399999618530273,"lat":63.439998626708984},{"type":2,"id":18577017,"urlname":"GDG-Cloud-Norway","status":"Active","city":"Oslo","country":"Norway","name":"GDG Cloud Oslo, Norway","lon":10.75,"lat":59.90999984741211},{"type":2,"id":5840872,"urlname":"GDGOslo","status":"Active","city":"Oslo","country":"Norway","name":"GDG Oslo","lon":10.75,"lat":59.90999984741211},{"type":2,"id":32329383,"urlname":"Suhar-GDG","status":"Active","city":"Suhar","country":"Oman","name":"GDG-Suhar","lon":56.70000076293945,"lat":24.34000015258789},{"type":2,"id":29061465,"urlname":"GDG-Salalah","status":"Active","city":"Dhufar","country":"Oman","name":"GDG Salalah","lon":54.09000015258789,"lat":17.020000457763672},{"type":2,"id":23654536,"urlname":"GDG_Muscat","status":"Active","city":"Muscat","country":"Oman","name":"GDG Muscat","lon":58.540000915527344,"lat":23.610000610351562},{"type":2,"id":31608607,"urlname":"GDG-Peshawar","status":"Active","city":"Peshawar","country":"Pakistan","name":"GDG Peshawar","lon":71.54000091552734,"lat":34.0099983215332},{"type":2,"id":31472710,"urlname":"gdgcloudislamabad","status":"Active","city":"Islamabad","country":"Pakistan","name":"GDG CLOUD Islamabad","lon":73.05999755859375,"lat":33.720001220703125},{"type":2,"id":26523424,"urlname":"GDGIslamabad","status":"Active","city":"Islamabad","country":"Pakistan","name":"GDG Islamabad","lon":73.05999755859375,"lat":33.720001220703125},{"type":2,"id":23338633,"urlname":"GDG-Kolachi","status":"Active","city":"Karachi","country":"Pakistan","name":"GDG Kolachi","lon":67.01000213623047,"lat":24.860000610351562},{"type":2,"id":32358933,"urlname":"GDG-Cloud-Lahore","status":"Active","city":"Lahore","country":"Pakistan","name":"GDG CloudLahore","lon":74.3499984741211,"lat":31.559999465942383},{"type":2,"id":24758792,"urlname":"GDGLahore","status":"Active","city":"Lahore","country":"Pakistan","name":"GDG Lahore","lon":74.3499984741211,"lat":31.559999465942383},{"type":2,"id":24094167,"urlname":"GDG-Gaza","status":"Active","city":"Gaza City","country":"Palestine","name":"GDG Gaza","lon":34.439998626708984,"lat":31.530000686645508},{"type":2,"id":23705678,"urlname":"GDG-Jenin","status":"Active","city":"Janin","country":"Palestine","name":"GDG Jenin","lon":35.29999923706055,"lat":32.470001220703125},{"type":2,"id":23701362,"urlname":"GDG-Nablus","status":"Active","city":"Nabulus","country":"Palestine","name":"GDG Nablus","lon":35.2599983215332,"lat":32.22999954223633},{"type":2,"id":23691538,"urlname":"gdg-Ramallah","status":"Active","city":"Ramallah","country":"Palestine","name":"GDG Ramallah","lon":35.20000076293945,"lat":31.899999618530273},{"type":2,"id":31541548,"urlname":"meetup-group-NlxevNOD","status":"Active","city":"Panamá","country":"Panama","name":"GDG Panamá City","lon":-79.52999877929688,"lat":8.970000267028809},{"type":2,"id":23332620,"urlname":"gdgcde","status":"Active","city":"Ciudad del Este","country":"Paraguay","name":"GDG Ciudad del Este","lon":-54.630001068115234,"lat":-25.420000076293945},{"type":2,"id":31909194,"urlname":"GDG-Piura","status":"Active","city":"Piura","country":"Peru","name":"GDG Piura","lon":-80.62999725341797,"lat":-5.190000057220459},{"type":2,"id":32473802,"urlname":"GDG-Chiclayo","status":"Active","city":"Chiclayo","country":"Peru","name":"GDG Chiclayo","lon":-79.83999633789062,"lat":-6.760000228881836},{"type":2,"id":31363617,"urlname":"GDGChimbote","status":"Active","city":"Chimbote","country":"Peru","name":"GDG Chimbote","lon":-78.5999984741211,"lat":-9.069999694824219},{"type":2,"id":28102440,"urlname":"Google-Cloud-Developer-Community-Lima","status":"Active","city":"Lima","country":"Peru","name":"GDG Cloud Lima","lon":-77.05000305175781,"lat":-12.069999694824219},{"type":2,"id":23337909,"urlname":"GDG-Open","status":"Active","city":"Lima","country":"Peru","name":"GDG Open","lon":-77.05000305175781,"lat":-12.069999694824219},{"type":2,"id":22590560,"urlname":"gdglima","status":"Active","city":"Lima","country":"Peru","name":"GDG Lima","lon":-77.05000305175781,"lat":-12.069999694824219},{"type":2,"id":31980976,"urlname":"gdgcuscoperu","status":"Active","city":"Cusco","country":"Peru","name":"GDG Cusco","lon":-71.98999786376953,"lat":-13.520000457763672},{"type":2,"id":24430007,"urlname":"GDG-Ica","status":"Delisted","city":"Ica","country":"Peru","name":"GDG Ica","lon":-75.75,"lat":-14.0600004196167},{"type":2,"id":33737427,"urlname":"Google-Developers-Group-Juliaca-GDG-Juliaca","status":"Active","city":"Juliaca","country":"Peru","name":"Google Developers Group Juliaca | GDG Juliaca","lon":-70.13999938964844,"lat":-15.5},{"type":2,"id":32155816,"urlname":"GDG-Arequipa","status":"Active","city":"Arequipa","country":"Peru","name":"GDG Arequipa","lon":-71.52999877929688,"lat":-16.389999389648438},{"type":2,"id":25041761,"urlname":"GDG-Halsema","status":"Active","city":"Sagada","country":"Philippines","name":"GDG Halsema","lon":120.91000366210938,"lat":17.100000381469727},{"type":2,"id":24289662,"urlname":"gdgbaguio","status":"Active","city":"Baguio","country":"Philippines","name":"GDG Baguio","lon":120.56999969482422,"lat":16.43000030517578},{"type":2,"id":26379835,"urlname":"GDG-Cloud-Manila","status":"Active","city":"Manila","country":"Philippines","name":"GDG Cloud Manila","lon":120.97000122070312,"lat":14.619999885559082},{"type":2,"id":22811935,"urlname":"gdgphilippines","status":"Active","city":"Manila","country":"Philippines","name":"Google Developer Group (GDG) Philippines","lon":120.97000122070312,"lat":14.619999885559082},{"type":2,"id":24289482,"urlname":"GDGCebu","status":"Active","city":"Cebu","country":"Philippines","name":"Google Developers Group (GDG) Cebu","lon":123.9000015258789,"lat":10.319999694824219},{"type":2,"id":33010625,"urlname":"GDG-Davao","status":"Delisted","city":"Davao","country":"Philippines","name":"GDG Davao","lon":125.62999725341797,"lat":7.110000133514404},{"type":2,"id":24290501,"urlname":"GDG-Bacolod","status":"Active","city":"Bacolod","country":"Philippines","name":"GDG Bacolod","lon":122.97000122070312,"lat":10.630000114440918},{"type":2,"id":25807886,"urlname":"gdgcdo","status":"Active","city":"Cagayan de Oro","country":"Philippines","name":"GDG Cagayan de Oro","lon":124.66999816894531,"lat":8.449999809265137},{"type":2,"id":24448990,"urlname":"gdgzamboanga","status":"Active","city":"Zamboanga","country":"Philippines","name":"GDG Zamboanga","lon":122.08000183105469,"lat":6.920000076293945},{"type":2,"id":29342903,"urlname":"GDGSzczecin","status":"Active","city":"Szczecin","country":"Poland","name":"GDG Szczecin","lon":14.529999732971191,"lat":53.43000030517578},{"type":2,"id":33494562,"urlname":"GDG-Cloud-Poznan","status":"Active","city":"Poznan","country":"Poland","name":"GDG Cloud Poznań","lon":16.899999618530273,"lat":52.400001525878906},{"type":2,"id":29297146,"urlname":"GDG-Poznań","status":"Active","city":"Poznan","country":"Poland","name":"GDG Poznań","lon":16.899999618530273,"lat":52.400001525878906},{"type":2,"id":28422136,"urlname":"GDG-Cloud-Wroclaw","status":"Active","city":"Wroclaw","country":"Poland","name":"GDG Cloud Wroclaw","lon":17.030000686645508,"lat":51.11000061035156},{"type":2,"id":23277288,"urlname":"GDG-Wroclaw","status":"Active","city":"Wroclaw","country":"Poland","name":"GDG Wrocław","lon":17.030000686645508,"lat":51.11000061035156},{"type":2,"id":28806043,"urlname":"gdg-bydgoscz","status":"Active","city":"Bydgoszcz","country":"Poland","name":"GDG Cloud Bydgoszcz","lon":18.010000228881836,"lat":53.119998931884766},{"type":2,"id":29136311,"urlname":"GDG-3City","status":"Active","city":"Gdansk","country":"Poland","name":"GDG 3City","lon":18.639999389648438,"lat":54.36000061035156},{"type":2,"id":6342982,"urlname":"GDG-Krakow","status":"Active","city":"Kraków","country":"Poland","name":"GDG Kraków","lon":19.959999084472656,"lat":50.060001373291016},{"type":2,"id":21191941,"urlname":"GDG-Cloud-Warszawa","status":"Active","city":"Warsaw","country":"Poland","name":"GDG Cloud Warszawa","lon":21.020000457763672,"lat":52.2599983215332},{"type":2,"id":8438822,"urlname":"GDG-Warszawa","status":"Active","city":"Warsaw","country":"Poland","name":"GDG Warszawa","lon":21.020000457763672,"lat":52.2599983215332},{"type":2,"id":29347611,"urlname":"GDG-Radzymin","status":"Active","city":"Radzymin","country":"Poland","name":"GDG Radzymin","lon":21.18000030517578,"lat":52.41999816894531},{"type":2,"id":23426118,"urlname":"GDG-Azores","status":"Active","city":"Ponta Delgada","country":"Portugal","name":"GDG Azores","lon":-25.670000076293945,"lat":37.75},{"type":2,"id":30971433,"urlname":"gdgmadeira","status":"Active","city":"Funchal","country":"Portugal","name":"GDG Madeira","lon":-16.899999618530273,"lat":32.650001525878906},{"type":2,"id":19772492,"urlname":"gdglisbon","status":"Active","city":"Lisbon","country":"Portugal","name":"Google Developer Group Lisboa","lon":-9.140000343322754,"lat":38.720001220703125},{"type":2,"id":30537315,"urlname":"GDG-Leiria","status":"Active","city":"Leiria","country":"Portugal","name":"GDG Leiria","lon":-8.800000190734863,"lat":39.75},{"type":2,"id":30741997,"urlname":"GDG-Faro","status":"Active","city":"Faro","country":"Portugal","name":"Google Developers Group Faro","lon":-7.940000057220459,"lat":37.029998779296875},{"type":2,"id":23346689,"urlname":"GDG-Coimbra","status":"Active","city":"Coimbra","country":"Portugal","name":"GDG Coimbra","lon":-8.430000305175781,"lat":40.220001220703125},{"type":2,"id":23607550,"urlname":"GDG-Porto","status":"Active","city":"Porto","country":"Portugal","name":"GDG Porto","lon":-8.619999885559082,"lat":41.150001525878906},{"type":2,"id":33312629,"urlname":"GDG-Castelo-Branco","status":"Active","city":"Castelo Branco","country":"Portugal","name":"GDG Castelo Branco","lon":-7.489999771118164,"lat":39.81999969482422},{"type":2,"id":28869049,"urlname":"GDG-Covilha","status":"Active","city":"Covilhã","country":"Portugal","name":"GDG Covilhã","lon":-7.510000228881836,"lat":40.290000915527344},{"type":2,"id":33504866,"urlname":"GDG-Braganca","status":"Active","city":"Bragança","country":"Portugal","name":"GDG Bragança","lon":-6.760000228881836,"lat":41.810001373291016},{"type":2,"id":24036775,"urlname":"GDG-Doha","status":"Active","city":"Doha","country":"Qatar","name":"GDG Doha","lon":51.5099983215332,"lat":25.299999237060547},{"type":2,"id":32468946,"urlname":"GDG-Baia-Mare","status":"Active","city":"Baia Mare","country":"Romania","name":"GDG Baia Mare","lon":23.579999923706055,"lat":47.65999984741211},{"type":2,"id":20348354,"urlname":"gdgcluj","status":"Active","city":"Cluj-Napoca","country":"Romania","name":"GDG Cluj-Napoca","lon":23.59000015258789,"lat":46.779998779296875},{"type":2,"id":27819718,"urlname":"gdg-craiova","status":"Active","city":"Craiova","country":"Romania","name":"GDG Craiova","lon":23.81999969482422,"lat":44.33000183105469},{"type":2,"id":20171730,"urlname":"gdgpitesti","status":"Active","city":"Pitesti","country":"Romania","name":"Google Developer Group Pitești","lon":24.8700008392334,"lat":44.86000061035156},{"type":2,"id":27647328,"urlname":"GDG-Cloud-Bucharest","status":"Active","city":"Bucharest","country":"Romania","name":"GDG Cloud Bucharest","lon":26.100000381469727,"lat":44.439998626708984},{"type":2,"id":18602307,"urlname":"Google-Developer-Group-Bucharest","status":"Active","city":"Bucharest","country":"Romania","name":"Google Developer Group Bucharest","lon":26.100000381469727,"lat":44.439998626708984},{"type":2,"id":19968640,"urlname":"Google-Developer-Group-Iasi","status":"Active","city":"Iasi","country":"Romania","name":"Google Developers Group Iasi","lon":27.56999969482422,"lat":47.16999816894531},{"type":2,"id":23585108,"urlname":"gdg_kgd","status":"Active","city":"Kaliningrad","country":"Russia","name":"GDG Kaliningrad","lon":20.510000228881836,"lat":54.720001220703125},{"type":2,"id":21850976,"urlname":"gdgspb","status":"Active","city":"St. Petersburg","country":"Russia","name":"GDG St. Petersburg","lon":30.31999969482422,"lat":59.93000030517578},{"type":2,"id":23410029,"urlname":"GDG-PTZ","status":"Active","city":"Petrozavodsk","country":"Russia","name":"GDG PTZ","lon":34.34000015258789,"lat":61.790000915527344},{"type":2,"id":33872196,"urlname":"GDG-Smolensk","status":"Active","city":"Smolensk","country":"Russia","name":"GDG Smolensk","lon":32.04999923706055,"lat":54.790000915527344},{"type":2,"id":33010923,"urlname":"GDG-Bryansk","status":"Active","city":"Brjansk","country":"Russia","name":"GDG Bryansk","lon":34.41999816894531,"lat":53.2599983215332},{"type":2,"id":33567559,"urlname":"GDG-Kaluga","status":"Active","city":"Kaluga","country":"Russia","name":"GDG Kaluga","lon":36.290000915527344,"lat":54.540000915527344},{"type":2,"id":20211280,"urlname":"GDG-Moscow","status":"Active","city":"Moscow","country":"Russia","name":"GDG Moscow","lon":37.619998931884766,"lat":55.75},{"type":2,"id":31250651,"urlname":"GDGYar","status":"Active","city":"Jaroslavl","country":"Russia","name":"GDG Cloud Yaroslavl","lon":39.849998474121094,"lat":57.61000061035156},{"type":2,"id":33601821,"urlname":"GDG-Tula","status":"Active","city":"Tula","country":"Russia","name":"GDG Tula","lon":37.599998474121094,"lat":54.209999084472656},{"type":2,"id":32170549,"urlname":"meetup-group-PiMVUQnt","status":"Active","city":"Voronezh","country":"Russia","name":"GDG Voronezh","lon":39.2599983215332,"lat":51.720001220703125},{"type":2,"id":19191216,"urlname":"Google-Developer-Group-Nizhny-Novgorod","status":"Active","city":"Nizhny Novgorod","country":"Russia","name":"GDG Nizhny Novgorod","lon":43.93000030517578,"lat":56.290000915527344},{"type":2,"id":33489976,"urlname":"GDG-Taganrog","status":"Active","city":"Taganrog","country":"Russia","name":"GDG Taganrog","lon":38.900001525878906,"lat":47.22999954223633},{"type":2,"id":19153512,"urlname":"gdgrnd","status":"Active","city":"Rostov","country":"Russia","name":"GDG Rostov-on-Don","lon":39.70000076293945,"lat":47.22999954223633},{"type":2,"id":23423788,"urlname":"gdgkrasnodar","status":"Active","city":"Krasnodar","country":"Russia","name":"GDG Krasnodar","lon":38.959999084472656,"lat":45.040000915527344},{"type":2,"id":32474664,"urlname":"GDG-Sochi","status":"Delisted","city":"Sochi","country":"Russia","name":"GDG Sochi","lon":39.7400016784668,"lat":43.58000183105469},{"type":2,"id":32592112,"urlname":"GDG-Cloud-Innopolis","status":"Active","city":"Innopolis","country":"Russia","name":"GDG Cloud Innopolis","lon":48.75,"lat":55.75},{"type":2,"id":30564090,"urlname":"GolangKazan","status":"Active","city":"Kazan","country":"Russia","name":"GDG Kazan Golang","lon":49.16999816894531,"lat":55.790000915527344},{"type":2,"id":23444723,"urlname":"GDG-Kazan","status":"Active","city":"Kazan","country":"Russia","name":"GDG Kazan","lon":49.16999816894531,"lat":55.790000915527344},{"type":2,"id":32550979,"urlname":"GDG-Saratov","status":"Active","city":"Saratov","country":"Russia","name":"GDG Saratov","lon":46,"lat":51.54999923706055},{"type":2,"id":30952361,"urlname":"GDGIzhevsk","status":"Active","city":"Izhevsk","country":"Russia","name":"GDG Izhevsk","lon":53.189998626708984,"lat":56.84000015258789},{"type":2,"id":30596319,"urlname":"GDG-Vladikavkaz","status":"Active","city":"Vladikavkaz","country":"Russia","name":"GDG Vladikavkaz","lon":44.66999816894531,"lat":43.029998779296875},{"type":2,"id":28892715,"urlname":"GDG-Magas","status":"Active","city":"Nazran","country":"Russia","name":"GDG Magas","lon":44.79999923706055,"lat":43.209999084472656},{"type":2,"id":20447109,"urlname":"GDG-Ufa","status":"Active","city":"Ufa","country":"Russia","name":"GDG Ufa","lon":56.06999969482422,"lat":54.810001373291016},{"type":2,"id":27485589,"urlname":"GDG-Astrakhan","status":"Active","city":"Astrahan","country":"Russia","name":"GDG Astrakhan","lon":48.09000015258789,"lat":46.369998931884766},{"type":2,"id":23400872,"urlname":"GDG-Ekaterinburg","status":"Active","city":"Yekaterinburg","country":"Russia","name":"GDG Ekaterinburg","lon":60.630001068115234,"lat":56.84000015258789},{"type":2,"id":23468295,"urlname":"GDGMakhachkala","status":"Active","city":"Mahackala","country":"Russia","name":"GDG Makhachkala","lon":47.5099983215332,"lat":42.97999954223633},{"type":2,"id":28648341,"urlname":"GDG-Tyumen","status":"Active","city":"Tjumen","country":"Russia","name":"GDG Tyumen","lon":65.5,"lat":57.16999816894531},{"type":2,"id":23403062,"urlname":"GDG-Omsk","status":"Active","city":"Omsk","country":"Russia","name":"GDG Omsk","lon":73.37000274658203,"lat":54.97999954223633},{"type":2,"id":21194182,"urlname":"GDGNsk","status":"Active","city":"Novosibirsk","country":"Russia","name":"GDG Novosibirsk","lon":82.93000030517578,"lat":55.02000045776367},{"type":2,"id":23583006,"urlname":"GDG-Krasnoyarsk","status":"Active","city":"Krasnojarsk","country":"Russia","name":"GDG Krasnoyarsk","lon":93.05999755859375,"lat":56.02000045776367},{"type":2,"id":30595659,"urlname":"GDG-Khabarovsk","status":"Active","city":"Habarovsk","country":"Russia","name":"GDG Khabarovsk","lon":135.1199951171875,"lat":48.41999816894531},{"type":2,"id":30026146,"urlname":"Chita-New-Technology-Meetup","status":"Active","city":"Chita","country":"Russia","name":"GDG CHITA","lon":113.45999908447266,"lat":52.04999923706055},{"type":2,"id":23468750,"urlname":"GDG_Ulan-Ude","status":"Active","city":"Ulan-Ude","country":"Russia","name":"GDG Ulan-Ude","lon":107.5999984741211,"lat":51.83000183105469},{"type":2,"id":23401125,"urlname":"GDG-Vladivostok","status":"Active","city":"Vladivostok","country":"Russia","name":"GDG Vladivostok","lon":131.89999389648438,"lat":43.130001068115234},{"type":2,"id":27396002,"urlname":"GDG-Kigali","status":"Active","city":"Kigali","country":"Rwanda","name":"GDG Kigali","lon":30.059999465942383,"lat":-1.940000057220459},{"type":2,"id":23472197,"urlname":"JeddahGDG","status":"Active","city":"Jeddah","country":"Saudi Arabia","name":"GDG & WomenTechmakers Jeddah","lon":39.16999816894531,"lat":21.5},{"type":2,"id":30388716,"urlname":"GCDCSaudi","status":"Active","city":"Riyadh","country":"Saudi Arabia","name":"Google Cloud Developer Community Saudi","lon":46.77000045776367,"lat":24.649999618530273},{"type":2,"id":30557101,"urlname":"GDG-Dakar","status":"Active","city":"Dakar","country":"Senegal","name":"GDG Dakar","lon":-17.479999542236328,"lat":14.720000267028809},{"type":2,"id":20353584,"urlname":"GDG-Novi-Sad","status":"Delisted","city":"Novi Sad","country":"Serbia","name":"Google Developer Group - Novi Sad","lon":19.850000381469727,"lat":45.25},{"type":2,"id":23069869,"urlname":"GDG-Beograd","status":"Active","city":"Belgrade","country":"Serbia","name":"GDG Beograd","lon":20.5,"lat":44.83000183105469},{"type":2,"id":28111055,"urlname":"gdg-freetown","status":"Active","city":"Freetown","country":"Sierra Leone","name":"GDG Freetown","lon":-13.239999771118164,"lat":8.489999771118164},{"type":2,"id":23436106,"urlname":"gdg-singapore","status":"Active","city":"Singapore","country":"Singapore","name":"GDG Singapore","lon":103.8499984741211,"lat":1.2999999523162842},{"type":2,"id":20085788,"urlname":"GDG-Cloud-Singapore","status":"Active","city":"Singapore","country":"Singapore","name":"GDG Cloud Singapore","lon":103.8499984741211,"lat":1.2999999523162842},{"type":2,"id":28456424,"urlname":"GDG-Bratislava","status":"Active","city":"Bratislava","country":"Slovakia","name":"GDG Bratislava","lon":17.1299991607666,"lat":48.15999984741211},{"type":2,"id":19157748,"urlname":"gdg-ke","status":"Active","city":"Košice","country":"Slovakia","name":"GDG Košice","lon":21.260000228881836,"lat":48.72999954223633},{"type":2,"id":23422167,"urlname":"GDG-Cloud-Capetown","status":"Active","city":"Cape Town","country":"South Africa","name":"GDG Cloud Cape Town","lon":18.459999084472656,"lat":-33.93000030517578},{"type":2,"id":12941892,"urlname":"Google-Developer-Group-Cape-Town-Meetup","status":"Active","city":"Cape Town","country":"South Africa","name":"GDG Cape Town","lon":18.459999084472656,"lat":-33.93000030517578},{"type":2,"id":25048379,"urlname":"GDG-Vaal","status":"Active","city":"Vanderbijlpark","country":"South Africa","name":"GDG VAAL","lon":27.81999969482422,"lat":-26.690000534057617},{"type":2,"id":33392689,"urlname":"GDG-Soweto","status":"Active","city":"Soweto","country":"South Africa","name":"GDG Soweto","lon":27.84000015258789,"lat":-26.280000686645508},{"type":2,"id":33820265,"urlname":"GDG-Polokwane","status":"Active","city":"Johannesburg","country":"South Africa","name":"GDG Polokwane","lon":28.040000915527344,"lat":-26.190000534057617},{"type":2,"id":23422656,"urlname":"GDG-Cloud-Johannesburg","status":"Active","city":"Johannesburg","country":"South Africa","name":"Google Developer Group (GDG) Cloud Johannesburg Meetup","lon":28.040000915527344,"lat":-26.190000534057617},{"type":2,"id":21570426,"urlname":"GDGJohannesburg","status":"Active","city":"Johannesburg","country":"South Africa","name":"GDG Johannesburg","lon":28.040000915527344,"lat":-26.190000534057617},{"type":2,"id":33525493,"urlname":"GDG-Pretoria","status":"Active","city":"Pretoria","country":"South Africa","name":"GDG Pretoria","lon":28.219999313354492,"lat":-25.729999542236328},{"type":2,"id":27087616,"urlname":"gdg-c-durban","status":"Active","city":"Durban","country":"South Africa","name":"GDG Cloud Durban","lon":30.989999771118164,"lat":-29.8700008392334},{"type":2,"id":33610424,"urlname":"GDG-Juba","status":"Active","city":"Juba","country":"South Sudan","name":"GDG Juba","lon":31.600000381469727,"lat":4.849999904632568},{"type":2,"id":23340111,"urlname":"GDG-Tenerife","status":"Active","city":"Santa Cruz de Tenerife","country":"Spain","name":"GDG Tenerife","lon":-16.25,"lat":28.469999313354492},{"type":2,"id":31636163,"urlname":"GDG-Cloud-Canarias","status":"Active","city":"Las Palmas","country":"Spain","name":"GDG Cloud Canarias","lon":-15.430000305175781,"lat":28.100000381469727},{"type":2,"id":21975928,"urlname":"gdg-grancanaria","status":"Active","city":"Las Palmas","country":"Spain","name":"Google Developer Group Gran Canaria","lon":-15.430000305175781,"lat":28.100000381469727},{"type":2,"id":19147458,"urlname":"GDGVigo","status":"Active","city":"Vigo","country":"Spain","name":"GDG Vigo","lon":-8.710000038146973,"lat":42.220001220703125},{"type":2,"id":28183850,"urlname":"GDG-Pontevedra","status":"Active","city":"Pontevedra","country":"Spain","name":"GDG Pontevedra","lon":-8.65999984741211,"lat":42.41999816894531},{"type":2,"id":19203420,"urlname":"gdgsantiagoes","status":"Active","city":"Santiago de Compostela","country":"Spain","name":"GDG Santiago","lon":-8.539999961853027,"lat":42.880001068115234},{"type":2,"id":23444171,"urlname":"GDG-Coruna","status":"Active","city":"A Coruña","country":"Spain","name":"GDG Coruña","lon":-8.420000076293945,"lat":43.33000183105469},{"type":2,"id":22101573,"urlname":"gdgourense","status":"Active","city":"Ourense","country":"Spain","name":"GDG Ourense","lon":-7.869999885559082,"lat":42.33000183105469},{"type":2,"id":26607844,"urlname":"gdgcadiz","status":"Active","city":"Cádiz","country":"Spain","name":"GDG Cádiz","lon":-6.289999961853027,"lat":36.529998779296875},{"type":2,"id":18997976,"urlname":"GDGSevilla","status":"Active","city":"Sevilla","country":"Spain","name":"GDG Sevilla","lon":-5.980000019073486,"lat":37.400001525878906},{"type":2,"id":32925129,"urlname":"GDG-Algeciras","status":"Active","city":"Algeciras","country":"Spain","name":"GDG Algeciras","lon":-5.449999809265137,"lat":36.130001068115234},{"type":2,"id":30538198,"urlname":"GDG-Marbella","status":"Active","city":"Marbella","country":"Spain","name":"GDG Marbella","lon":-4.889999866485596,"lat":36.52000045776367},{"type":2,"id":23362578,"urlname":"GDGSalamanca","status":"Active","city":"Salamanca","country":"Spain","name":"GDG Salamanca","lon":-5.670000076293945,"lat":40.970001220703125},{"type":2,"id":13103222,"urlname":"GDGCordoba","status":"Active","city":"Córdoba","country":"Spain","name":"GDG Córdoba","lon":-4.769999980926514,"lat":37.880001068115234},{"type":2,"id":19148394,"urlname":"Google-Developer-Group-Malaga","status":"Active","city":"Málaga","country":"Spain","name":"GDG Málaga","lon":-4.420000076293945,"lat":36.720001220703125},{"type":2,"id":31038708,"urlname":"GDG-Leon-Esp","status":"Active","city":"León","country":"Spain","name":"GDG-LEÓN","lon":-5.570000171661377,"lat":42.59000015258789},{"type":2,"id":23357888,"urlname":"GDG-Asturias","status":"Active","city":"Gijón","country":"Spain","name":"GDG Asturias","lon":-5.670000076293945,"lat":43.529998779296875},{"type":2,"id":23342441,"urlname":"GDG-Jaen","status":"Active","city":"Jaén","country":"Spain","name":"GDG Jaén","lon":-3.799999952316284,"lat":37.77000045776367},{"type":2,"id":19147507,"urlname":"granadagdg","status":"Active","city":"Granada","country":"Spain","name":"Google Developer Group Granada","lon":-3.5899999141693115,"lat":37.16999816894531},{"type":2,"id":12875702,"urlname":"gdgtoledo_es","status":"Active","city":"Toledo","country":"Spain","name":"GDG Toledo","lon":-4.03000020980835,"lat":39.86000061035156},{"type":2,"id":27838968,"urlname":"Cloud-Espanol","status":"Active","city":"Madrid","country":"Spain","name":"GDG Cloud Español","lon":-3.7100000381469727,"lat":40.41999816894531},{"type":2,"id":22066412,"urlname":"gcdcmadrid","status":"Active","city":"Madrid","country":"Spain","name":"Google Cloud Developer Community Madrid","lon":-3.7100000381469727,"lat":40.41999816894531},{"type":2,"id":18966077,"urlname":"GDGMadrid","status":"Active","city":"Madrid","country":"Spain","name":"GDG Madrid","lon":-3.7100000381469727,"lat":40.41999816894531},{"type":2,"id":22044531,"urlname":"GDG-Burgos","status":"Active","city":"Burgos","country":"Spain","name":"GDG Burgos","lon":-3.690000057220459,"lat":42.349998474121094},{"type":2,"id":31105148,"urlname":"gdg_santander","status":"Active","city":"Santander","country":"Spain","name":"GDG Santander","lon":-3.809999942779541,"lat":43.459999084472656},{"type":2,"id":33339829,"urlname":"GDG-Vitoria","status":"Active","city":"Vitoria","country":"Spain","name":"GDG Vitoria","lon":-2.6700000762939453,"lat":42.849998474121094},{"type":2,"id":23331250,"urlname":"GDG-La-Rioja","status":"Active","city":"La Rioja","country":"Spain","name":"GDG La Rioja","lon":-2.440000057220459,"lat":42.470001220703125},{"type":2,"id":23341605,"urlname":"GDGMurcia","status":"Active","city":"Murcia","country":"Spain","name":"GDG Murcia","lon":-1.1299999952316284,"lat":37.97999954223633},{"type":2,"id":33662374,"urlname":"GDGCartagena","status":"Active","city":"Cartagena","country":"Spain","name":"GDG Cartagena","lon":-0.9800000190734863,"lat":37.61000061035156},{"type":2,"id":26672217,"urlname":"GDG-Navarra","status":"Active","city":"Pamplona","country":"Spain","name":"GDG Navarra","lon":-1.649999976158142,"lat":42.81999969482422},{"type":2,"id":26614032,"urlname":"GDG-Alicante","status":"Active","city":"Alacant","country":"Spain","name":"GDG Alicante","lon":-0.47999998927116394,"lat":38.349998474121094},{"type":2,"id":20016918,"urlname":"gdgZaragoza","status":"Active","city":"Zaragoza","country":"Spain","name":"GDG Zaragoza","lon":-0.8899999856948853,"lat":41.650001525878906},{"type":2,"id":22770146,"urlname":"GDGValencia","status":"Active","city":"Valencia","country":"Spain","name":"GDG Valencia","lon":-0.38999998569488525,"lat":39.47999954223633},{"type":2,"id":23354095,"urlname":"Google-Developer-Group-Lleida","status":"Active","city":"Lleida","country":"Spain","name":"Google Developer Group Lleida","lon":0.6299999952316284,"lat":41.619998931884766},{"type":2,"id":21966455,"urlname":"GDG-Tarragona","status":"Active","city":"Tarragona","country":"Spain","name":"Google Developers Group Tarragona","lon":1.2400000095367432,"lat":41.119998931884766},{"type":2,"id":18602644,"urlname":"GDG-Barcelona","status":"Active","city":"Barcelona","country":"Spain","name":"Google Developers Group Barcelona","lon":2.1700000762939453,"lat":41.400001525878906},{"type":2,"id":32818315,"urlname":"GDGPalma","status":"Active","city":"Palma","country":"Spain","name":"GDG Cloud Palma","lon":2.6500000953674316,"lat":39.56999969482422},{"type":2,"id":19201267,"urlname":"Women-Techmakers-Mallorca","status":"Active","city":"Palma","country":"Spain","name":"Women Techmakers\/GDG Mallorca","lon":2.6500000953674316,"lat":39.56999969482422},{"type":2,"id":28269863,"urlname":"GDG-Girona","status":"Active","city":"Girona","country":"Spain","name":"GDG Girona","lon":2.809999942779541,"lat":41.97999954223633},{"type":2,"id":19201372,"urlname":"Google-Developers-Group-Menorca","status":"Active","city":"Mahón","country":"Spain","name":"Google Developers Group Menorca","lon":4.25,"lat":39.88999938964844},{"type":2,"id":25286827,"urlname":"GCDCLK","status":"Active","city":"Colombo","country":"Sri Lanka","name":"GDG Cloud Sri Lanka","lon":79.8499984741211,"lat":6.929999828338623},{"type":2,"id":24852473,"urlname":"GDG-LK","status":"Active","city":"Colombo","country":"Sri Lanka","name":"Google Developer Group Sri Lanka","lon":79.8499984741211,"lat":6.929999828338623},{"type":2,"id":32934039,"urlname":"GDGWestSweden","status":"Active","city":"Göteborg","country":"Sweden","name":"Google Developers Group - GDG West Sweden","lon":12.010000228881836,"lat":57.720001220703125},{"type":2,"id":33001650,"urlname":"GDG-East-Sweden","status":"Active","city":"Norrköping","country":"Sweden","name":"GDG East Sweden","lon":16.170000076293945,"lat":58.599998474121094},{"type":2,"id":23420557,"urlname":"GDG-Cloud-Stockholm","status":"Active","city":"Stockholm","country":"Sweden","name":"GDG Cloud Stockholm","lon":18.06999969482422,"lat":59.33000183105469},{"type":2,"id":19174366,"urlname":"Stockholm-Google-Developer-Group","status":"Active","city":"Stockholm","country":"Sweden","name":"Stockholm Google Developer Group","lon":18.06999969482422,"lat":59.33000183105469},{"type":2,"id":14359052,"urlname":"STHLM-Android","status":"Active","city":"Stockholm","country":"Sweden","name":"GDG Stockholm Android","lon":18.06999969482422,"lat":59.33000183105469},{"type":2,"id":33619427,"urlname":"Google-Developer-Group-Lausanne","status":"Active","city":"Lausanne","country":"Switzerland","name":"Google Developer Group Lausanne","lon":6.619999885559082,"lat":46.52000045776367},{"type":2,"id":20270306,"urlname":"GDGFribourg","status":"Active","city":"Fribourg","country":"Switzerland","name":"Google Developer Group Fribourg (GDG Fribourg)","lon":7.139999866485596,"lat":46.810001373291016},{"type":2,"id":26051944,"urlname":"wtm-switzerland","status":"Active","city":"Zürich","country":"Switzerland","name":"Women Techmakers Switzerland","lon":8.539999961853027,"lat":47.380001068115234},{"type":2,"id":11090922,"urlname":"GDG-Zurich","status":"Active","city":"Zürich","country":"Switzerland","name":"GDG Zürich","lon":8.539999961853027,"lat":47.380001068115234},{"type":2,"id":28595148,"urlname":"GDGCloud-Taipei","status":"Active","city":"Taipei","country":"Taiwan","name":"GDG Cloud Taipei","lon":121.44999694824219,"lat":25.020000457763672},{"type":2,"id":23526566,"urlname":"GDGTaipei","status":"Active","city":"Taipei","country":"Taiwan","name":"GDG Taipei","lon":121.44999694824219,"lat":25.020000457763672},{"type":2,"id":31225539,"urlname":"GDGTaoyuan","status":"Active","city":"Taoyuan","country":"Taiwan","name":"GDG Taoyuan","lon":121.30999755859375,"lat":25},{"type":2,"id":32420173,"urlname":"GDG-Hsinchu","status":"Active","city":"Hsinchu","country":"Taiwan","name":"GDG Hsinchu","lon":120.9800033569336,"lat":24.81999969482422},{"type":2,"id":30693217,"urlname":"GDG-Hualien","status":"Active","city":"Hualian","country":"Taiwan","name":"GDG Hualien","lon":121.58999633789062,"lat":23.989999771118164},{"type":2,"id":30615948,"urlname":"GDGTaichung","status":"Active","city":"Taichung","country":"Taiwan","name":"GDG Taichung","lon":120.68000030517578,"lat":24.149999618530273},{"type":2,"id":30741482,"urlname":"GDG-Tainan","status":"Active","city":"Tainan","country":"Taiwan","name":"GDG Tainan","lon":120.19000244140625,"lat":23},{"type":2,"id":31601752,"urlname":"GDGCloud-Kaohsiung","status":"Active","city":"Kaohsiung","country":"Taiwan","name":"GDG Cloud Kaohsiung","lon":120.2699966430664,"lat":22.6299991607666},{"type":2,"id":23569282,"urlname":"GDGKaohsiung","status":"Active","city":"Kaohsiung","country":"Taiwan","name":"GDG Kaohsiung","lon":120.2699966430664,"lat":22.6299991607666},{"type":2,"id":33544881,"urlname":"GDG-Kagera","status":"Active","city":"Bukoba","country":"Tanzania","name":"GDG Kagera","lon":31.799999237060547,"lat":-1.3200000524520874},{"type":2,"id":23401823,"urlname":"GDG-Mwanza","status":"Active","city":"Mwanza","country":"Tanzania","name":"GDG Mwanza","lon":32.88999938964844,"lat":-2.5199999809265137},{"type":2,"id":23531295,"urlname":"GDG-Dar-es-Salaam","status":"Active","city":"Dar es Salaam","country":"Tanzania","name":"GDG Dar es Salaam","lon":39.279998779296875,"lat":-6.820000171661377},{"type":2,"id":25692512,"urlname":"GDG-Cloud-Bangkok","status":"Active","city":"Bangkok","country":"Thailand","name":"GDG Cloud Bangkok","lon":100.5,"lat":13.729999542236328},{"type":2,"id":23339535,"urlname":"GDG-Thailand","status":"Active","city":"Bangkok","country":"Thailand","name":"GDG Thailand","lon":100.5,"lat":13.729999542236328},{"type":2,"id":23339790,"urlname":"GDGSriracha","status":"Active","city":"Si Racha","country":"Thailand","name":"GDG Sriracha","lon":100.93000030517578,"lat":13.15999984741211},{"type":2,"id":23403814,"urlname":"GDG-Lome","status":"Active","city":"Lomé","country":"Togo","name":"GDG Lomé","lon":1.350000023841858,"lat":6.170000076293945},{"type":2,"id":33310361,"urlname":"GDG-Port-of-Spain-new","status":"Active","city":"Port of Spain","country":"Trinidad &amp; Tobago","name":"GDG Port-of-Spain","lon":-61.5099983215332,"lat":10.65999984741211},{"type":2,"id":27009522,"urlname":"GDG-Beja","status":"Active","city":"Bajah","country":"Tunisia","name":"GDG-Beja","lon":9.1899995803833,"lat":36.72999954223633},{"type":2,"id":24447597,"urlname":"GDG-Bizerte","status":"Active","city":"Binzart","country":"Tunisia","name":"GDG Bizerte","lon":9.869999885559082,"lat":37.290000915527344},{"type":2,"id":30775533,"urlname":"GDG-Manouba","status":"Active","city":"Manubah","country":"Tunisia","name":"GDG Manouba","lon":10.100000381469727,"lat":36.79999923706055},{"type":2,"id":23671406,"urlname":"gdgcarthage","status":"Active","city":"Tunis","country":"Tunisia","name":"GDG Carthage","lon":10.220000267028809,"lat":36.84000015258789},{"type":2,"id":24131498,"urlname":"GDG-Sousse","status":"Active","city":"Susah","country":"Tunisia","name":"GDGSousse","lon":10.640000343322754,"lat":35.84000015258789},{"type":2,"id":24014054,"urlname":"GDG-Sfax","status":"Active","city":"Safaqis","country":"Tunisia","name":"GDG Sfax","lon":10.720000267028809,"lat":34.75},{"type":2,"id":23438837,"urlname":"GDG-Monastir","status":"Active","city":"al-Munastir","country":"Tunisia","name":"GDG Monastir","lon":10.819999694824219,"lat":35.790000915527344},{"type":2,"id":26141904,"urlname":"GDGEdirne","status":"Active","city":"Edirne","country":"Turkey","name":"GDG Edirne","lon":26.559999465942383,"lat":41.689998626708984},{"type":2,"id":33935300,"urlname":"GDG-Canakkale","status":"Active","city":"Çanakkale","country":"Turkey","name":"GDG Çanakkale","lon":26.40999984741211,"lat":40.15999984741211},{"type":2,"id":23571353,"urlname":"gdgtekirdag","status":"Active","city":"Tekirdag","country":"Turkey","name":"GDG Tekirdag","lon":27.520000457763672,"lat":40.97999954223633},{"type":2,"id":31315088,"urlname":"GDG-Cloud-Izmir","status":"Active","city":"Izmir","country":"Turkey","name":"GDG Cloud Izmir","lon":27.149999618530273,"lat":38.43000030517578},{"type":2,"id":23419317,"urlname":"GDG-Izmir","status":"Active","city":"Izmir","country":"Turkey","name":"GDG Izmir","lon":27.149999618530273,"lat":38.43000030517578},{"type":2,"id":32166050,"urlname":"GDG-Manisa","status":"Active","city":"Manisa","country":"Turkey","name":"GDG Manisa","lon":27.43000030517578,"lat":38.630001068115234},{"type":2,"id":28579515,"urlname":"GDG-Cloud-Istanbul","status":"Active","city":"Istanbul","country":"Turkey","name":"Google Cloud Developer Community Istanbul","lon":28.959999084472656,"lat":41.0099983215332},{"type":2,"id":19474193,"urlname":"GDGIstanbul","status":"Active","city":"Istanbul","country":"Turkey","name":"GDG Istanbul","lon":28.959999084472656,"lat":41.0099983215332},{"type":2,"id":33786666,"urlname":"GDG-Cloud-Bursa","status":"Active","city":"Bursa","country":"Turkey","name":"GDG Cloud Bursa | Google Developer Groups Cloud Bursa","lon":29.079999923706055,"lat":40.20000076293945},{"type":2,"id":30765749,"urlname":"GDGBursa","status":"Active","city":"Bursa","country":"Turkey","name":"GDG Bursa | Google Developers Groups Bursa","lon":29.079999923706055,"lat":40.20000076293945},{"type":2,"id":32166919,"urlname":"GDG-Denizli","status":"Active","city":"Denizli","country":"Turkey","name":"GDG Denizli","lon":29.079999923706055,"lat":37.779998779296875},{"type":2,"id":25977101,"urlname":"GDGKocaeli","status":"Active","city":"Izmit","country":"Turkey","name":"GDG Kocaeli","lon":29.93000030517578,"lat":40.77000045776367},{"type":2,"id":23572089,"urlname":"GDG-Kutahya","status":"Active","city":"Kütahya","country":"Turkey","name":"GDG Kütahya","lon":29.979999542236328,"lat":39.41999816894531},{"type":2,"id":33790939,"urlname":"GDG-Sakarya","status":"Active","city":"Adapazari","country":"Turkey","name":"GDG Sakarya","lon":30.40999984741211,"lat":40.790000915527344},{"type":2,"id":23417319,"urlname":"gdgeskisehir","status":"Active","city":"Eskisehir","country":"Turkey","name":"GDG Eskişehir","lon":30.520000457763672,"lat":39.790000915527344},{"type":2,"id":23409667,"urlname":"GDG-Duzce-Meetup","status":"Active","city":"Düzce","country":"Turkey","name":"GDG Düzce","lon":31.149999618530273,"lat":40.849998474121094},{"type":2,"id":30615328,"urlname":"gdgburdur","status":"Active","city":"Burdur","country":"Turkey","name":"GDG Burdur","lon":30.280000686645508,"lat":37.72999954223633},{"type":2,"id":30615060,"urlname":"GdgIsparta","status":"Active","city":"Isparta","country":"Turkey","name":"GDG ISPARTA","lon":30.549999237060547,"lat":37.77000045776367},{"type":2,"id":33700368,"urlname":"GDGZonguldak","status":"Active","city":"Zonguldak","country":"Turkey","name":"GDG Zonguldak","lon":31.799999237060547,"lat":41.459999084472656},{"type":2,"id":26734985,"urlname":"GDGBolu","status":"Active","city":"Bolu","country":"Turkey","name":"GDG Bolu","lon":31.610000610351562,"lat":40.75},{"type":2,"id":26868644,"urlname":"GDGAntalya","status":"Active","city":"Antalya","country":"Turkey","name":"GDG Antalya","lon":30.709999084472656,"lat":36.88999938964844},{"type":2,"id":27899251,"urlname":"gdg-cloud-ankara","status":"Active","city":"Ankara","country":"Turkey","name":"GDG Cloud Ankara","lon":32.849998474121094,"lat":39.93000030517578},{"type":2,"id":22017880,"urlname":"GDGAnkara","status":"Active","city":"Ankara","country":"Turkey","name":"GDG Ankara","lon":32.849998474121094,"lat":39.93000030517578},{"type":2,"id":23411956,"urlname":"GDGKonya","status":"Active","city":"Konya","country":"Turkey","name":"GDG Konya","lon":32.47999954223633,"lat":37.880001068115234},{"type":2,"id":33936272,"urlname":"GDG-Kastamonu","status":"Active","city":"Kastamonu","country":"Turkey","name":"GDG Kastamonu","lon":33.779998779296875,"lat":41.38999938964844},{"type":2,"id":30632269,"urlname":"GDG-Mersin","status":"Active","city":"Içel","country":"Turkey","name":"GDG Mersin","lon":34.630001068115234,"lat":36.810001373291016},{"type":2,"id":32170356,"urlname":"GDG-Samsun","status":"Active","city":"Samsun","country":"Turkey","name":"GDG Samsun","lon":36.33000183105469,"lat":41.290000915527344},{"type":2,"id":32264105,"urlname":"GDG-Kayseri","status":"Active","city":"Kayseri","country":"Turkey","name":"GDG Kayseri","lon":35.47999954223633,"lat":38.7400016784668},{"type":2,"id":23419069,"urlname":"GDG-Adana","status":"Active","city":"Adana","country":"Turkey","name":"GDG Adana","lon":35.31999969482422,"lat":37},{"type":2,"id":23535148,"urlname":"GDGSivas","status":"Active","city":"Sivas","country":"Turkey","name":"GDG Sivas","lon":37.02000045776367,"lat":39.75},{"type":2,"id":30645291,"urlname":"GDG-Hatay","status":"Active","city":"Iskenderun","country":"Turkey","name":"GDG Hatay","lon":36.16999816894531,"lat":36.58000183105469},{"type":2,"id":33672741,"urlname":"GDGGaziantep","status":"Active","city":"Gaziantep","country":"Turkey","name":"GDG Gaziantep","lon":37.38999938964844,"lat":37.06999969482422},{"type":2,"id":23493886,"urlname":"GDGTrabzon","status":"Active","city":"Trabzon","country":"Turkey","name":"GDG Trabzon","lon":39.709999084472656,"lat":41},{"type":2,"id":33121738,"urlname":"GDG-Elazığ","status":"Active","city":"Elazig","country":"Turkey","name":"GDG Elazığ","lon":39.22999954223633,"lat":38.68000030517578},{"type":2,"id":28606119,"urlname":"GDG-Sanliurfa","status":"Active","city":"Urfa","country":"Turkey","name":"GDG Sanliurfa","lon":38.790000915527344,"lat":37.16999816894531},{"type":2,"id":33566250,"urlname":"Mardin-Sanat-Meetup-Grubu","status":"Active","city":"Mardin","country":"Turkey","name":"GDG MARDİN","lon":40.779998779296875,"lat":37.33000183105469},{"type":2,"id":33182900,"urlname":"GDG-Ashgabat","status":"Active","city":"Asgabat","country":"Turkmenistan","name":"GDG Ashgabat","lon":58.380001068115234,"lat":37.95000076293945},{"type":2,"id":25571538,"urlname":"GDG-AbuDhabi","status":"Active","city":"Abu Dhabi","country":"U.A.E.","name":"GDG Abu Dhabi","lon":54.369998931884766,"lat":24.479999542236328},{"type":2,"id":25019115,"urlname":"GDG-Cloud-Emirates","status":"Active","city":"Dubai","country":"U.A.E.","name":"GDG Cloud Emirates","lon":55.33000183105469,"lat":25.270000457763672},{"type":2,"id":18366021,"urlname":"GDG-Dubai","status":"Active","city":"Dubai","country":"U.A.E.","name":"Google Developer Groups Dubai","lon":55.33000183105469,"lat":25.270000457763672},{"type":2,"id":23779852,"urlname":"GDG-Sharjah","status":"Active","city":"Sharjah","country":"U.A.E.","name":"GDG Sharjah","lon":55.5099983215332,"lat":25.31999969482422},{"type":2,"id":10821092,"urlname":"GDG-Kansas-City","status":"Active","city":"Kansas City","country":"USA","name":"Google Developer Group Kansas City","lon":-94.58999633789062,"lat":39.060001373291016},{"type":2,"id":20234040,"urlname":"GDGCloudKansasCity","status":"Active","city":"Kansas City","country":"USA","name":"GDG Cloud Kansas City","lon":-94.5999984741211,"lat":39.099998474121094},{"type":2,"id":18475894,"urlname":"Google-Developers-Group-GDG-Chicago","status":"Active","city":"Chicago","country":"USA","name":"Google Developers Group: GDG Chicago","lon":-87.63999938964844,"lat":41.88999938964844},{"type":2,"id":21659496,"urlname":"Google-Developers-Group-GDG-Cloud-Chicago","status":"Active","city":"Chicago","country":"USA","name":"Google Developers Group: GDG Cloud Chicago","lon":-87.75,"lat":41.939998626708984},{"type":2,"id":18960608,"urlname":"GDG-Grand-Rapids","status":"Active","city":"Grand Rapids","country":"USA","name":"GDG Grand Rapids","lon":-85.66000366210938,"lat":42.959999084472656},{"type":2,"id":32838833,"urlname":"GDG-Cloud-Burlington","status":"Active","city":"Burlington","country":"USA","name":"GDG Cloud Burlington","lon":-73.2300033569336,"lat":44.4900016784668},{"type":2,"id":28055430,"urlname":"GDG-UWM","status":"Delisted","city":"Milwaukee","country":"USA","name":"Google Developers Group UWM","lon":-87.91999816894531,"lat":43.040000915527344},{"type":2,"id":22571140,"urlname":"gdgmadison","status":"Active","city":"Madison","country":"USA","name":"GDG Madison","lon":-89.37999725341797,"lat":43.08000183105469},{"type":2,"id":18701379,"urlname":"GDGOmaha","status":"Active","city":"Omaha","country":"USA","name":"Google Developer Group Omaha","lon":-96.05000305175781,"lat":41.2599983215332},{"type":2,"id":33137479,"urlname":"GDG-Rochester-MN","status":"Active","city":"Rochester","country":"USA","name":"GDG Rochester MN","lon":-92.5,"lat":44.04999923706055},{"type":2,"id":1776979,"urlname":"gdg-tc","status":"Active","city":"Minneapolis","country":"USA","name":"Google Developers Group - Twin Cities","lon":-93.2300033569336,"lat":44.97999954223633},{"type":2,"id":32819857,"urlname":"GDGCloudTC","status":"Active","city":"Minneapolis","country":"USA","name":"GDG Cloud Twin Cities - A Google Developer Group","lon":-93.2699966430664,"lat":44.97999954223633},{"type":2,"id":26879590,"urlname":"GDG-Cloud-Tucson","status":"Active","city":"Tucson","country":"USA","name":"GDG Cloud Tucson","lon":-110.97000122070312,"lat":32.220001220703125},{"type":2,"id":18582358,"urlname":"Google-Developer-Group-Tucson","status":"Active","city":"Tucson","country":"USA","name":"GDG Tucson","lon":-110.97000122070312,"lat":32.220001220703125},{"type":2,"id":15151612,"urlname":"GDG-Denver","status":"Active","city":"Denver","country":"USA","name":"Google Developer Group (GDG) Denver","lon":-104.91000366210938,"lat":39.689998626708984},{"type":2,"id":29399462,"urlname":"gdg-cloud-denver","status":"Active","city":"Denver","country":"USA","name":"GDG (Google Developer Group) Cloud Denver","lon":-105.08000183105469,"lat":39.70000076293945},{"type":2,"id":12284642,"urlname":"Google-Developer-Group-Boulder","status":"Active","city":"Boulder","country":"USA","name":"Google Developer Group Boulder","lon":-105.30999755859375,"lat":40.040000915527344},{"type":2,"id":1780067,"urlname":"GDGNoCo","status":"Active","city":"Fort Collins","country":"USA","name":"GDG Northern Colorado - Android\/Chrome","lon":-105.04000091552734,"lat":40.529998779296875},{"type":2,"id":29403782,"urlname":"GDG-cloud-PHX","status":"Active","city":"Phoenix","country":"USA","name":"GDG Cloud Phoenix","lon":-112.06999969482422,"lat":33.45000076293945},{"type":2,"id":11157752,"urlname":"PHX-Android","status":"Active","city":"Phoenix","country":"USA","name":"GDG Phoenix \/ PHX Android","lon":-112.19000244140625,"lat":33.439998626708984},{"type":2,"id":18459883,"urlname":"gdglasvegas","status":"Active","city":"Las Vegas","country":"USA","name":"GDG Las Vegas (Google Developer Group)","lon":-115.11000061035156,"lat":36.150001525878906},{"type":2,"id":1571509,"urlname":"gdg-san-diego","status":"Active","city":"San Diego","country":"USA","name":"GDG San Diego","lon":-117.19999694824219,"lat":32.88999938964844},{"type":2,"id":18371678,"urlname":"GDG-Silicon-Slopes","status":"Active","city":"Lehi","country":"USA","name":"GDG Silicon Slopes","lon":-111.8499984741211,"lat":40.38999938964844},{"type":2,"id":5249192,"urlname":"GDG-Salt-Lake","status":"Active","city":"South Jordan","country":"USA","name":"GDG Salt Lake","lon":-111.97000122070312,"lat":40.56999969482422},{"type":2,"id":23590830,"urlname":"gdgcloudoc","status":"Active","city":"Irvine","country":"USA","name":"GDG Cloud OC","lon":-117.70999908447266,"lat":33.709999084472656},{"type":2,"id":31382820,"urlname":"GDG-LA-Android","status":"Active","city":"Los Angeles","country":"USA","name":"GDG Los Angeles Android","lon":-118.23999786376953,"lat":33.970001220703125},{"type":2,"id":30810351,"urlname":"GDG-Cloud-Pasadena","status":"Active","city":"Pasadena","country":"USA","name":"GDG Cloud Pasadena","lon":-118.13999938964844,"lat":34.150001525878906},{"type":2,"id":3817652,"urlname":"gdg-la","status":"Active","city":"Los Angeles","country":"USA","name":"GDG Los Angeles","lon":-118.33999633789062,"lat":34.09000015258789},{"type":2,"id":30831861,"urlname":"GDG-Silicon-Beach","status":"Active","city":"Venice","country":"USA","name":"GDG Silicon Beach (Google Developers Group)","lon":-118.47000122070312,"lat":33.9900016784668},{"type":2,"id":30065730,"urlname":"Google-Developer-Group-San-Fernando-Valley","status":"Active","city":"Sherman Oaks","country":"USA","name":"Google Developer Group San Fernando Valley","lon":-118.45999908447266,"lat":34.150001525878906},{"type":2,"id":30020938,"urlname":"Google-Developer-Group-Bozeman","status":"Active","city":"Bozeman","country":"USA","name":"Google Developer Group Bozeman","lon":-111.05999755859375,"lat":45.66999816894531},{"type":2,"id":14328292,"urlname":"GDG-Visalia-Google-Developer-Group","status":"Active","city":"Visalia","country":"USA","name":"GDG Visalia (Google Developer Group)","lon":-119.30999755859375,"lat":36.310001373291016},{"type":2,"id":13533282,"urlname":"womentechmakersfresno","status":"Active","city":"Fresno","country":"USA","name":"Women Techmakers Fresno","lon":-119.77999877929688,"lat":36.72999954223633},{"type":2,"id":8806052,"urlname":"googledevelopers","status":"Active","city":"Fresno","country":"USA","name":"GDG Fresno (Google Developer Group)","lon":-119.87999725341797,"lat":36.79999923706055},{"type":2,"id":32256923,"urlname":"GDG-Cloud-Turlock","status":"Active","city":"Turlock","country":"USA","name":"GDG Cloud Turlock","lon":-120.86000061035156,"lat":37.5},{"type":2,"id":13726482,"urlname":"GDG-Modesto-Google-Developer-Group","status":"Active","city":"Modesto","country":"USA","name":"GDG Modesto (Google Developer Group)","lon":-120.94000244140625,"lat":37.68000030517578},{"type":2,"id":19234892,"urlname":"GDG-Missoula","status":"Active","city":"Missoula","country":"USA","name":"GDG Missoula","lon":-114.04000091552734,"lat":46.86000061035156},{"type":2,"id":31006073,"urlname":"San-Jose-Android-Meetup","status":"Active","city":"San Jose","country":"USA","name":"GDG San Jose","lon":-121.93000030517578,"lat":37.310001373291016},{"type":2,"id":32081830,"urlname":"GDG-Cloud-San-Jose","status":"Active","city":"San Jose","country":"USA","name":"GDG Cloud San Jose","lon":-121.9000015258789,"lat":37.38999938964844},{"type":2,"id":30465451,"urlname":"GDG-Cloud-Santa-Clara","status":"Active","city":"Santa Clara","country":"USA","name":"GDG Cloud Santa Clara","lon":-121.95999908447266,"lat":37.349998474121094},{"type":2,"id":31608288,"urlname":"computerscience","status":"Active","city":"Santa Clara","country":"USA","name":"GDG Santa Clara","lon":-121.9800033569336,"lat":37.349998474121094},{"type":2,"id":29467957,"urlname":"GDG-Cloud-Fremont","status":"Active","city":"Fremont","country":"USA","name":"GDG Cloud Fremont","lon":-121.97000122070312,"lat":37.529998779296875},{"type":2,"id":33845624,"urlname":"GDG-API-Test-Group","status":"Active","city":"Mountain View","country":"USA","name":"GDG API Test Group","lon":-122.05000305175781,"lat":37.40999984741211},{"type":2,"id":29612249,"urlname":"GDGValley","status":"Active","city":"Mountain View","country":"USA","name":"Google Developer Group Cloud (GDG) - Silicon Valley","lon":-122.08000183105469,"lat":37.40999984741211},{"type":2,"id":1381929,"urlname":"gdg-silicon-valley","status":"Active","city":"Mountain View","country":"USA","name":"Google Developer Group Silicon Valley","lon":-122.08000183105469,"lat":37.40999984741211},{"type":2,"id":25272262,"urlname":"GDG-Fremont","status":"Active","city":"Fremont","country":"USA","name":"GDG Fremont","lon":-122.05000305175781,"lat":37.56999969482422},{"type":2,"id":32359460,"urlname":"GDG-Cloud-Palo-Alto","status":"Active","city":"Palo Alto","country":"USA","name":"GDG Cloud Palo Alto","lon":-122.1500015258789,"lat":37.439998626708984},{"type":2,"id":1623056,"urlname":"gdgsacramento","status":"Active","city":"Sacramento","country":"USA","name":"Google Developer Group (GDG) Sacramento","lon":-121.48999786376953,"lat":38.58000183105469},{"type":2,"id":32947782,"urlname":"gdg-cloud-oakland","status":"Active","city":"Oakland","country":"USA","name":"GDG Cloud Oakland","lon":-122.22000122070312,"lat":37.779998779296875},{"type":2,"id":16038482,"urlname":"GDGBerkeley","status":"Delisted","city":"Berkeley","country":"USA","name":"GDG Berkeley","lon":-122.26000213623047,"lat":37.869998931884766},{"type":2,"id":2603182,"urlname":"GDGSanFrancisco","status":"Active","city":"San Francisco","country":"USA","name":"GDG San Francisco","lon":-122.41000366210938,"lat":37.790000915527344},{"type":2,"id":29405788,"urlname":"GDGCloudSF","status":"Active","city":"San Francisco","country":"USA","name":"GDG Cloud - San Francisco","lon":-122.41999816894531,"lat":37.779998779296875},{"type":2,"id":1455557,"urlname":"sfandroid","status":"Active","city":"San Francisco","country":"USA","name":"The San Francisco Android GDG","lon":-122.41999816894531,"lat":37.790000915527344},{"type":2,"id":28887367,"urlname":"GDG-Sonoma","status":"Active","city":"Petaluma","country":"USA","name":"GDG Sonoma","lon":-122.61000061035156,"lat":38.25},{"type":2,"id":32894688,"urlname":"GDG-Redding","status":"Active","city":"Redding","country":"USA","name":"GDG Redding","lon":-122.41999816894531,"lat":40.560001373291016},{"type":2,"id":29233861,"urlname":"GDG-Spokane","status":"Delisted","city":"Spokane","country":"USA","name":"GDG Spokane","lon":-117.43000030517578,"lat":47.66999816894531},{"type":2,"id":25984048,"urlname":"GoogleCloudPDX","status":"Active","city":"Portland","country":"USA","name":"GDG Cloud Portland","lon":-122.66999816894531,"lat":45.52000045776367},{"type":2,"id":19415051,"urlname":"Google-Development-Group-GDG-PDX-Meetup","status":"Active","city":"Portland","country":"USA","name":"GDG PDX","lon":-122.69000244140625,"lat":45.5},{"type":2,"id":33792875,"urlname":"GDG-Cloud-Bellevue","status":"Active","city":"Bellevue","country":"USA","name":"GDG Cloud Bellevue","lon":-122.20999908447266,"lat":47.619998931884766},{"type":2,"id":17404842,"urlname":"Bellevue-GDG","status":"Active","city":"Bellevue","country":"USA","name":"Bellevue Google Developer Group - GDG","lon":-122.20999908447266,"lat":47.619998931884766},{"type":2,"id":1525894,"urlname":"gdg-seattle","status":"Active","city":"Seattle","country":"USA","name":"Google Developer Group (GDG) Seattle","lon":-122.33000183105469,"lat":47.599998474121094},{"type":2,"id":33136401,"urlname":"GDG-Oahu","status":"Active","city":"Honolulu","country":"USA","name":"GDG Oahu","lon":-157.85000610351562,"lat":21.309999465942383},{"type":2,"id":33737639,"urlname":"GDG-San-Juan-PR","status":"Active","city":"San Juan","country":"USA","name":"GDG San Juan PR","lon":-66.11000061035156,"lat":18.459999084472656},{"type":2,"id":28157151,"urlname":"GDG-Cloud-Miami","status":"Active","city":"Miami","country":"USA","name":"GDG Cloud Miami","lon":-80.19999694824219,"lat":25.780000686645508},{"type":2,"id":25782684,"urlname":"GDG-Miami","status":"Active","city":"Fort Lauderdale","country":"USA","name":"GDG Miami","lon":-80.12999725341797,"lat":26.1200008392334},{"type":2,"id":17108342,"urlname":"GDGSpaceCoast","status":"Active","city":"Melbourne","country":"USA","name":"GDG Space Coast - Google Developers Group","lon":-80.62999725341797,"lat":28.06999969482422},{"type":2,"id":31681014,"urlname":"gdg-cloud-tampabay","status":"Active","city":"Tampa","country":"USA","name":"GDG Cloud Tampa Bay","lon":-82.45999908447266,"lat":27.959999084472656},{"type":2,"id":18490631,"urlname":"gdgsuncoast","status":"Active","city":"Tampa","country":"USA","name":"GDG SunCoast","lon":-82.45999908447266,"lat":27.959999084472656},{"type":2,"id":11775232,"urlname":"GDG-Central-Florida","status":"Active","city":"Orlando","country":"USA","name":"Google Developer Group Central Florida","lon":-81.37000274658203,"lat":28.540000915527344},{"type":2,"id":33769940,"urlname":"Gainesville-Education-Technology-Meetup-Group","status":"Active","city":"Gainesville","country":"USA","name":"GDG Gainesville","lon":-82.30000305175781,"lat":29.649999618530273},{"type":2,"id":31705013,"urlname":"GDG-Cloud-Jacksonville","status":"Active","city":"Jacksonville","country":"USA","name":"GDG Cloud Jacksonville","lon":-81.7699966430664,"lat":30.329999923706055},{"type":2,"id":32369576,"urlname":"GDG-Savannah","status":"Active","city":"Savannah","country":"USA","name":"GDG Savannah","lon":-81.11000061035156,"lat":32.06999969482422},{"type":2,"id":32899325,"urlname":"GDG-Charleston","status":"Active","city":"Charleston","country":"USA","name":"GDG Charleston","lon":-79.94000244140625,"lat":32.779998779296875},{"type":2,"id":27925045,"urlname":"GDG-Mobile-Alabama","status":"Active","city":"Mobile","country":"USA","name":"GDG Mobile Alabama","lon":-88.05000305175781,"lat":30.700000762939453},{"type":2,"id":1491010,"urlname":"gdg-new-orleans","status":"Active","city":"New Orleans","country":"USA","name":"GDG New Orleans","lon":-90.12000274658203,"lat":29.950000762939453},{"type":2,"id":19224635,"urlname":"Mercer-University-Google-Developers-Group-Meetup","status":"Active","city":"Macon","country":"USA","name":"Mercer University Google Developers Group Meetup","lon":-83.68000030517578,"lat":32.84000015258789},{"type":2,"id":31004732,"urlname":"GDG-Cloud-Auburn","status":"Active","city":"Auburn","country":"USA","name":"GDG Cloud Auburn","lon":-85.47000122070312,"lat":32.599998474121094},{"type":2,"id":15746642,"urlname":"GDG-Cloud-Columbia","status":"Active","city":"Columbia","country":"USA","name":"GDG Cloud Columbia","lon":-81.02999877929688,"lat":34},{"type":2,"id":18411441,"urlname":"Google-Developers-Group-Columbia-GDG","status":"Active","city":"Columbia","country":"USA","name":"Google Developers Group Columbia (GDG)","lon":-81.0999984741211,"lat":34.040000915527344},{"type":2,"id":8727792,"urlname":"gdg-atlanta","status":"Active","city":"Atlanta","country":"USA","name":"GDG Atlanta","lon":-84.3499984741211,"lat":33.790000915527344},{"type":2,"id":30498872,"urlname":"GDG-Cloud-Atlanta","status":"Active","city":"Atlanta","country":"USA","name":"GDG Cloud Atlanta","lon":-84.4000015258789,"lat":33.86000061035156},{"type":2,"id":24846422,"urlname":"Google-Cloud-Charlotte","status":"Active","city":"Charlotte","country":"USA","name":"GDG Cloud Charlotte","lon":-80.83000183105469,"lat":35.189998626708984},{"type":2,"id":1494907,"urlname":"gdg-charlotte","status":"Active","city":"Charlotte","country":"USA","name":"Google Developer Group Charlotte","lon":-80.83999633789062,"lat":35.22999954223633},{"type":2,"id":11197652,"urlname":"Google-Developer-Group-Raleigh","status":"Active","city":"Raleigh","country":"USA","name":"Google Developer Group Raleigh","lon":-78.63999938964844,"lat":35.77000045776367},{"type":2,"id":29587797,"urlname":"GDG-Cloud-RTP","status":"Active","city":"Durham","country":"USA","name":"GDG Cloud RTP","lon":-78.91999816894531,"lat":35.91999816894531},{"type":2,"id":33008072,"urlname":"GDG-Chapel-Hill","status":"Active","city":"Chapel Hill","country":"USA","name":"GDG Chapel Hill","lon":-79.04000091552734,"lat":35.93000030517578},{"type":2,"id":33569916,"urlname":"GDG-Durham","status":"Active","city":"Durham","country":"USA","name":"GDG Durham","lon":-78.9000015258789,"lat":36},{"type":2,"id":32544075,"urlname":"GDG-Granite-Falls","status":"Active","city":"Granite Falls","country":"USA","name":"GDG Granite Falls","lon":-81.45999908447266,"lat":35.81999969482422},{"type":2,"id":23477491,"urlname":"Google-Developers-Group-Asheville","status":"Active","city":"Asheville","country":"USA","name":"Google Developers Group Asheville","lon":-82.55999755859375,"lat":35.59000015258789},{"type":2,"id":31724097,"urlname":"Google-Developer-Group-GDG-Houston","status":"Active","city":"Houston","country":"USA","name":"Google Developer Group - GDG Houston","lon":-95.4000015258789,"lat":29.68000030517578},{"type":2,"id":26909791,"urlname":"Houston-Google-Cloud-User-Group","status":"Active","city":"Houston","country":"USA","name":"GDG Cloud Houston","lon":-95.55999755859375,"lat":29.75},{"type":2,"id":10178242,"urlname":"NashvilleMDUG","status":"Active","city":"Nashville","country":"USA","name":"GDG Nashville          \/         Nashville Mobile Developers","lon":-86.79000091552734,"lat":36.15999984741211},{"type":2,"id":18491722,"urlname":"Google-Developer-Group-Central-Virginia","status":"Active","city":"Charlottesville","country":"USA","name":"GDG Central Virginia","lon":-78.48999786376953,"lat":38.060001373291016},{"type":2,"id":32800462,"urlname":"GDGMemphis","status":"Active","city":"Memphis","country":"USA","name":"GDG MEMPHIS","lon":-89.94999694824219,"lat":35.11000061035156},{"type":2,"id":33530785,"urlname":"meetup-group-wLLGyBmq","status":"Active","city":"San Antonio","country":"USA","name":"GDG Cloud San Antonio","lon":-98.52999877929688,"lat":29.469999313354492},{"type":2,"id":19112928,"urlname":"GDG-Cloud-Austin","status":"Active","city":"Austin","country":"USA","name":"GDG Cloud Austin","lon":-97.73999786376953,"lat":30.270000457763672},{"type":2,"id":4759652,"urlname":"gdgaustin","status":"Active","city":"Austin","country":"USA","name":"Google Developer Group Austin","lon":-97.73999786376953,"lat":30.270000457763672},{"type":2,"id":30723874,"urlname":"GDG-Cloud-Berea","status":"Active","city":"Berea","country":"USA","name":"GDG Cloud Berea","lon":-84.2699966430664,"lat":37.58000183105469},{"type":2,"id":24763417,"urlname":"GoogleCloudDC","status":"Active","city":"Washington","country":"USA","name":"GDG Cloud DC Meetup","lon":-77.0199966430664,"lat":38.90999984741211},{"type":2,"id":1612017,"urlname":"gdg-dc","status":"Active","city":"Herndon","country":"USA","name":"Google Developer Group - Washington DC (GDG-DC)","lon":-77.4000015258789,"lat":38.93000030517578},{"type":2,"id":32814302,"urlname":"GDG-Little-Rock","status":"Active","city":"Little Rock","country":"USA","name":"GDG Little Rock","lon":-92.27999877929688,"lat":34.75},{"type":2,"id":10574062,"urlname":"GDG-Baltimore","status":"Active","city":"Baltimore","country":"USA","name":"Google Technology & Developer Group - Baltimore","lon":-76.62999725341797,"lat":39.27000045776367},{"type":2,"id":28439225,"urlname":"GDG-Cloud-Baltimore","status":"Active","city":"Baltimore","country":"USA","name":"GDG Cloud Baltimore","lon":-76.62000274658203,"lat":39.290000915527344},{"type":2,"id":31351783,"urlname":"GDG-Cloud-Wilmington","status":"Active","city":"Wilmington","country":"USA","name":"GDG Cloud Wilmington","lon":-75.55000305175781,"lat":39.7400016784668},{"type":2,"id":15289982,"urlname":"GDGWilmington","status":"Active","city":"Wilmington","country":"USA","name":"GDG Wilmington","lon":-75.55000305175781,"lat":39.7400016784668},{"type":2,"id":24204529,"urlname":"Google-Cloud-Platform-DFW","status":"Active","city":"Dallas","country":"USA","name":"GDG Cloud DFW (f.k.a. GCP DFW)","lon":-96.80000305175781,"lat":32.790000915527344},{"type":2,"id":27954300,"urlname":"gdgcloud-philly","status":"Active","city":"Philadelphia","country":"USA","name":"GDG Cloud Philly","lon":-75.13999938964844,"lat":39.95000076293945},{"type":2,"id":30957565,"urlname":"GDG-Russellville","status":"Delisted","city":"Russellville","country":"USA","name":"GDG Russellville","lon":-93.13999938964844,"lat":35.279998779296875},{"type":2,"id":3912952,"urlname":"GDGPhilly","status":"Active","city":"Philadelphia","country":"USA","name":"GDG Philadelphia","lon":-75.13999938964844,"lat":40},{"type":2,"id":1791179,"urlname":"gdgdallas","status":"Active","city":"Dallas","country":"USA","name":"GDG Dallas","lon":-96.83999633789062,"lat":33},{"type":2,"id":28346661,"urlname":"Old-Bridge-Web-Design-Meetup","status":"Active","city":"Old Bridge","country":"USA","name":"GDG Central Jersey","lon":-74.31999969482422,"lat":40.400001525878906},{"type":2,"id":31149361,"urlname":"GDG-Cloud-Cincinnati","status":"Active","city":"Cincinnati","country":"USA","name":"GDG Cloud Cincinnati","lon":-84.3499984741211,"lat":39.25},{"type":2,"id":2055641,"urlname":"gdgcincinnati","status":"Active","city":"Cincinnati","country":"USA","name":"GDG Cincinnati","lon":-84.3499984741211,"lat":39.25},{"type":2,"id":29035908,"urlname":"gdg-nb","status":"Active","city":"New Brunswick","country":"USA","name":"Google Developers Group (GDG) New Brunswick","lon":-74.44999694824219,"lat":40.4900016784668},{"type":2,"id":32658427,"urlname":"GDG-Jersey-City","status":"Delisted","city":"Jersey City","country":"USA","name":"GDG Jersey City","lon":-74.06999969482422,"lat":40.72999954223633},{"type":2,"id":17528982,"urlname":"cloudnyc","status":"Active","city":"New York","country":"USA","name":"GDG Cloud NYC","lon":-74,"lat":40.7400016784668},{"type":2,"id":19782026,"urlname":"gdgnyc","status":"Active","city":"New York","country":"USA","name":"Google Developer Group (GDG) NYC","lon":-73.98999786376953,"lat":40.75},{"type":2,"id":14910872,"urlname":"GDG-North-Jersey","status":"Active","city":"Montclair","country":"USA","name":"Google Developer Group (GDG) North Jersey","lon":-74.22000122070312,"lat":40.810001373291016},{"type":2,"id":33601482,"urlname":"meetup-group-owYnhnIH","status":"Active","city":"Pittsburgh","country":"USA","name":"GDG Pittsburgh","lon":-79.94999694824219,"lat":40.470001220703125},{"type":2,"id":18556074,"urlname":"GDG-Bronx","status":"Active","city":"Bronx","country":"USA","name":"Google Developer Group (GDG) Bronx","lon":-73.9000015258789,"lat":40.869998931884766},{"type":2,"id":23852593,"urlname":"GDG-Android-Columbus","status":"Active","city":"Columbus","country":"USA","name":"GDG Android Columbus","lon":-83.0199966430664,"lat":40.099998474121094},{"type":2,"id":4232402,"urlname":"GDG-Columbus","status":"Active","city":"Columbus","country":"USA","name":"GDG Columbus","lon":-83.0199966430664,"lat":40.099998474121094},{"type":2,"id":19335264,"urlname":"GDG-New-Haven","status":"Active","city":"New Haven","country":"USA","name":"GDG New Haven","lon":-72.93000030517578,"lat":41.310001373291016},{"type":2,"id":30932456,"urlname":"GDG-Bentonville","status":"Active","city":"Bentonville","country":"USA","name":"GDG Bentonville","lon":-94.20999908447266,"lat":36.380001068115234},{"type":2,"id":8824712,"urlname":"gdg-indy","status":"Active","city":"Indianapolis","country":"USA","name":"GDG Indy","lon":-86.11000061035156,"lat":39.869998931884766},{"type":2,"id":28871552,"urlname":"GDG-Springfield","status":"Delisted","city":"Springfield","country":"USA","name":"GDG Springfield: Google Developer Group Springfield","lon":-93.29000091552734,"lat":37.130001068115234},{"type":2,"id":18358735,"urlname":"GDG-Muncie","status":"Active","city":"Muncie","country":"USA","name":"GDG Muncie","lon":-85.37999725341797,"lat":40.16999816894531},{"type":2,"id":19052755,"urlname":"GDGSTL","status":"Active","city":"Saint Louis","country":"USA","name":"GDG St Louis: Google Developers Group St Louis","lon":-90.45999908447266,"lat":38.70000076293945},{"type":2,"id":29984038,"urlname":"GDG-Cleveland","status":"Active","city":"Independence","country":"USA","name":"GDG Cleveland","lon":-81.66000366210938,"lat":41.380001068115234},{"type":2,"id":33779973,"urlname":"GDG-Cloud-OKC","status":"Active","city":"Oklahoma City","country":"USA","name":"GDG Cloud OKC","lon":-97.55999755859375,"lat":35.4900016784668},{"type":2,"id":1715787,"urlname":"boston-android","status":"Active","city":"Boston","country":"USA","name":"GDG Boston Android","lon":-71.06999969482422,"lat":42.36000061035156},{"type":2,"id":19781258,"urlname":"GDGCloudBoston","status":"Active","city":"Cambridge","country":"USA","name":"GDG Cloud Boston (Google Developer Group)","lon":-71.08999633789062,"lat":42.369998931884766},{"type":2,"id":28872269,"urlname":"GDG-Cambridge-MA","status":"Active","city":"Cambridge","country":"USA","name":"Google Developer Group (GDG) Cambridge","lon":-71.12999725341797,"lat":42.380001068115234},{"type":2,"id":19198823,"urlname":"GDGToledo","status":"Active","city":"Toledo","country":"USA","name":"Google Developer Group Toledo","lon":-83.5999984741211,"lat":41.66999816894531},{"type":2,"id":33004020,"urlname":"GDG-Northwest-Ohio","status":"Active","city":"Archbold","country":"USA","name":"GDG Northwest Ohio","lon":-84.30000305175781,"lat":41.540000915527344},{"type":2,"id":31097233,"urlname":"GDG-Columbia-MO","status":"Active","city":"Columbia","country":"USA","name":"GDG Columbia, MO","lon":-92.25,"lat":38.900001525878906},{"type":2,"id":30841898,"urlname":"GDG-Lawrence","status":"Active","city":"Lawrence","country":"USA","name":"Google Developer Group (GDG)  Lawrence","lon":-71.16000366210938,"lat":42.709999084472656},{"type":2,"id":19940484,"urlname":"Google-Developer-Group-of-the-Capital-Region","status":"Active","city":"Ballston Spa","country":"USA","name":"GDG Capital Region","lon":-73.86000061035156,"lat":43.0099983215332},{"type":2,"id":11850532,"urlname":"GDG-Manchester-NH","status":"Active","city":"Manchester","country":"USA","name":"GDG Manchester NH","lon":-71.47000122070312,"lat":42.9900016784668},{"type":2,"id":4781092,"urlname":"Detroit-Google-Developers-Group","status":"Active","city":"Detroit","country":"USA","name":"Detroit Google Developers Group","lon":-83.05000305175781,"lat":42.33000183105469},{"type":2,"id":30877910,"urlname":"gdg-portsmouth-nh","status":"Active","city":"Portsmouth","country":"USA","name":"GDG Portsmouth NH","lon":-70.77999877929688,"lat":43.06999969482422},{"type":2,"id":30698714,"urlname":"GDG-Rochester","status":"Active","city":"Rochester","country":"USA","name":"GDG Rochester","lon":-77.62999725341797,"lat":43.08000183105469},{"type":2,"id":4127542,"urlname":"gdg-a2","status":"Active","city":"Ann Arbor","country":"USA","name":"GDG Ann Arbor","lon":-83.72000122070312,"lat":42.2599983215332},{"type":2,"id":32807511,"urlname":"GDGSBE","status":"Active","city":"South Bend","country":"USA","name":"GDG South Bend-Elkhart","lon":-86.25,"lat":41.66999816894531},{"type":2,"id":18897433,"urlname":"gdgbuffalo","status":"Active","city":"Buffalo","country":"USA","name":"Google Developer Group Buffalo (GDG Buffalo)","lon":-78.80000305175781,"lat":43.029998779296875},{"type":2,"id":32887925,"urlname":"GDG-Kalamazoo","status":"Delisted","city":"Kalamazoo","country":"USA","name":"GDG Kalamazoo","lon":-85.45999908447266,"lat":42.2599983215332},{"type":2,"id":33627823,"urlname":"GDG-Fort-Portal","status":"Active","city":"Fort Portal","country":"Uganda","name":"GDG Fort Portal","lon":30.270000457763672,"lat":0.6700000166893005},{"type":2,"id":25143267,"urlname":"GDG-MBARARA","status":"Active","city":"Mbarara","country":"Uganda","name":"GDG Mbarara","lon":30.649999618530273,"lat":-0.6000000238418579},{"type":2,"id":23810643,"urlname":"Gulu-Google-Developer-Group-Meetup","status":"Active","city":"Gulu","country":"Uganda","name":"GDG Gulu","lon":32.279998779296875,"lat":2.7799999713897705},{"type":2,"id":23455002,"urlname":"GDG-Entebbe","status":"Active","city":"Entebbe","country":"Uganda","name":"GDG Entebbe","lon":32.459999084472656,"lat":0.05999999865889549},{"type":2,"id":27390475,"urlname":"GDG-Cloud-Kampala","status":"Active","city":"Kampala","country":"Uganda","name":"GDG Cloud Kampala","lon":32.58000183105469,"lat":0.3199999928474426},{"type":2,"id":23399707,"urlname":"GDG-Kampala","status":"Active","city":"Kampala","country":"Uganda","name":"GDG Kampala","lon":32.58000183105469,"lat":0.3199999928474426},{"type":2,"id":30890460,"urlname":"GDG-Kayunga","status":"Active","city":"Kayunga","country":"Uganda","name":"GDG Kayunga","lon":32.88999938964844,"lat":0.7099999785423279},{"type":2,"id":23629314,"urlname":"GDG-Jinja","status":"Active","city":"Jinja","country":"Uganda","name":"GDG Jinja","lon":33.20000076293945,"lat":0.4399999976158142},{"type":2,"id":30930863,"urlname":"Soroti-GDG-Meetup","status":"Active","city":"Soroti","country":"Uganda","name":"GDG Soroti","lon":33.599998474121094,"lat":1.7100000381469727},{"type":2,"id":23399881,"urlname":"GDG-Mbale","status":"Active","city":"Mbale","country":"Uganda","name":"GDG Mbale","lon":34.16999816894531,"lat":1.090000033378601},{"type":2,"id":23400734,"urlname":"GDG-Busitema","status":"Active","city":"Tororo","country":"Uganda","name":"GDG Busitema","lon":34.16999816894531,"lat":0.7099999785423279},{"type":2,"id":26696643,"urlname":"GDG-Uzhhorod","status":"Active","city":"Uzhhorod","country":"Ukraine","name":"GDG Uzhhorod","lon":22.309999465942383,"lat":48.619998931884766},{"type":2,"id":27985245,"urlname":"GDG-Cloud-Lviv","status":"Active","city":"L'viv","country":"Ukraine","name":"GDG Cloud Lviv","lon":24.030000686645508,"lat":49.84000015258789},{"type":2,"id":19164575,"urlname":"GDG-Lviv","status":"Active","city":"L'viv","country":"Ukraine","name":"GDG Lviv","lon":24.030000686645508,"lat":49.84000015258789},{"type":2,"id":23720573,"urlname":"GDG-Ternopil","status":"Active","city":"Ternopil'","country":"Ukraine","name":"GDG Ternopil","lon":25.600000381469727,"lat":49.54999923706055},{"type":2,"id":32201791,"urlname":"GDG-Vinnytsia","status":"Active","city":"Vinnytsya","country":"Ukraine","name":"GDG Vinnytsia","lon":28.489999771118164,"lat":49.2400016784668},{"type":2,"id":24246317,"urlname":"GDG-Kyiv-Center","status":"Active","city":"Kyiv","country":"Ukraine","name":"GDG Kyiv-Center","lon":30.520000457763672,"lat":50.439998626708984},{"type":2,"id":33028303,"urlname":"GDG-Chernihiv","status":"Active","city":"Chernihiv","country":"Ukraine","name":"GDG Chernihiv","lon":31.290000915527344,"lat":51.5},{"type":2,"id":28203653,"urlname":"GDG-Odesa","status":"Active","city":"Odesa","country":"Ukraine","name":"GDG Odesa","lon":30.729999542236328,"lat":46.4900016784668},{"type":2,"id":19148651,"urlname":"GDG-Cherkasy","status":"Active","city":"Cherkasy","country":"Ukraine","name":"GDG Cherkasy","lon":32.08000183105469,"lat":49.439998626708984},{"type":2,"id":22800237,"urlname":"GDG-Dnipro","status":"Active","city":"Dnipropetrovs'k","country":"Ukraine","name":"GDG Dnipro","lon":35.040000915527344,"lat":48.45000076293945},{"type":2,"id":31911820,"urlname":"GDG-Cloud-Kharkiv","status":"Active","city":"Kharkiv","country":"Ukraine","name":"GDG Cloud Kharkiv","lon":36.220001220703125,"lat":49.97999954223633},{"type":2,"id":23805393,"urlname":"GDG-Kharkiv-Center-Google-I-O-Extended","status":"Active","city":"Kharkiv","country":"Ukraine","name":"GDG Kharkiv-Center","lon":36.220001220703125,"lat":49.97999954223633},{"type":2,"id":29134464,"urlname":"GDG-Zaporizhzhia","status":"Active","city":"Zaporizhzhya","country":"Ukraine","name":"GDG Zaporizhzhia","lon":35.16999816894531,"lat":47.849998474121094},{"type":2,"id":26785452,"urlname":"Google-Developer-Group-Belfast","status":"Active","city":"Belfast","country":"United Kingdom","name":"GDG Belfast","lon":-5.929999828338623,"lat":54.599998474121094},{"type":2,"id":31212248,"urlname":"GDG-Douglas","status":"Active","city":"Douglas","country":"United Kingdom","name":"GDG Douglas - Google Developer Group","lon":-4.480000019073486,"lat":54.150001525878906},{"type":2,"id":22219782,"urlname":"GDGCardiff","status":"Active","city":"Cardiff","country":"United Kingdom","name":"GDG Cardiff","lon":-3.180000066757202,"lat":51.47999954223633},{"type":2,"id":29351980,"urlname":"GDG-Bristol","status":"Active","city":"Bristol","country":"United Kingdom","name":"GDG Bristol","lon":-2.5999999046325684,"lat":51.459999084472656},{"type":2,"id":24927091,"urlname":"Glasgow-New-Technology-Meetup","status":"Active","city":"Glasgow","country":"United Kingdom","name":"GDG Glasgow","lon":-4.269999980926514,"lat":55.869998931884766},{"type":2,"id":33077030,"urlname":"GDG-Southampton","status":"Active","city":"Southampton","country":"United Kingdom","name":"GDG Southampton","lon":-1.409999966621399,"lat":50.90999984741211},{"type":2,"id":25931717,"urlname":"Google-Cloud-Platform-Users-North-West","status":"Active","city":"Manchester","country":"United Kingdom","name":"Google Cloud Platform Users North West","lon":-2.25,"lat":53.47999954223633},{"type":2,"id":26666347,"urlname":"gdg-edinburgh","status":"Active","city":"Edinburgh","country":"United Kingdom","name":"GDG Edinburgh","lon":-3.200000047683716,"lat":55.95000076293945},{"type":2,"id":18258480,"urlname":"GDG-Oxford","status":"Active","city":"Oxford","country":"United Kingdom","name":"GDG Oxford","lon":-1.2799999713897705,"lat":51.75},{"type":2,"id":19445893,"urlname":"Google-Developer-Group-Hants-Surrey","status":"Delisted","city":"Basingstoke","country":"United Kingdom","name":"Google Developer Group Hants & Surrey","lon":-1.0800000429153442,"lat":51.27000045776367},{"type":2,"id":18404940,"urlname":"GDG-Reading-Thames-Valley","status":"Active","city":"Reading","country":"United Kingdom","name":"GDG Reading & Thames Valley","lon":-0.9900000095367432,"lat":51.41999816894531},{"type":2,"id":21844029,"urlname":"GDG-Leeds","status":"Active","city":"Leeds","country":"United Kingdom","name":"GDG Leeds","lon":-1.5499999523162842,"lat":53.810001373291016},{"type":2,"id":20526043,"urlname":"GDG-Milton-Keynes","status":"Active","city":"Milton Keynes","country":"United Kingdom","name":"GDG Milton Keynes","lon":-0.75,"lat":52.02000045776367},{"type":2,"id":29589782,"urlname":"NewcastleML","status":"Active","city":"Newcastle Upon Tyne","country":"United Kingdom","name":"GDG Cloud Newcastle-Northeast","lon":-1.6200000047683716,"lat":54.970001220703125},{"type":2,"id":12276992,"urlname":"gdglondon","status":"Active","city":"London","country":"United Kingdom","name":"GDG London","lon":-0.09000000357627869,"lat":51.52000045776367},{"type":2,"id":19331544,"urlname":"gdgcloud","status":"Active","city":"London","country":"United Kingdom","name":"GDG Cloud London","lon":-0.07000000029802322,"lat":51.5099983215332},{"type":2,"id":32910596,"urlname":"gdgcambridge","status":"Delisted","city":"Cambridge","country":"United Kingdom","name":"GDG Cambridge","lon":0.12999999523162842,"lat":52.209999084472656},{"type":2,"id":33580044,"urlname":"GDG-Cloud-Montevideo","status":"Active","city":"Montevideo","country":"Uruguay","name":"GDG Cloud Montevideo","lon":-56.16999816894531,"lat":-34.869998931884766},{"type":2,"id":18414620,"urlname":"GDGMontevideo","status":"Active","city":"Montevideo","country":"Uruguay","name":"GDG Montevideo","lon":-56.16999816894531,"lat":-34.869998931884766},{"type":2,"id":27387106,"urlname":"GDG-Tashkent","status":"Active","city":"Tashkent","country":"Uzbekistan","name":"GDG Tashkent","lon":69.23999786376953,"lat":41.29999923706055},{"type":2,"id":32718330,"urlname":"GDG-Tachira","status":"Active","city":"San Cristobal","country":"Venezuela","name":"GDG Táchira","lon":-72.2300033569336,"lat":7.760000228881836},{"type":2,"id":32490648,"urlname":"GDG-Cloud-Hanoi","status":"Active","city":"Ha Noi","country":"Vietnam","name":"GDG Cloud Hanoi","lon":105.83999633789062,"lat":21.030000686645508},{"type":2,"id":18675964,"urlname":"Google-Developer-Group-Ha-Noi","status":"Active","city":"Ha Noi","country":"Vietnam","name":"Google Developer Group Ha Noi","lon":105.83999633789062,"lat":21.030000686645508},{"type":2,"id":31476481,"urlname":"GDGCloudDaNang","status":"Active","city":"Da Nang","country":"Vietnam","name":"GDG Cloud Da Nang","lon":108.20999908447266,"lat":16.06999969482422},{"type":2,"id":24345796,"urlname":"GDGMienTrungVietnam","status":"Active","city":"Da Nang","country":"Vietnam","name":"Google Developer Group MienTrung","lon":108.20999908447266,"lat":16.06999969482422},{"type":2,"id":31707702,"urlname":"GDG-Cloud-HCMC","status":"Active","city":"Ho Chi Minh City","country":"Vietnam","name":"GDG Cloud HCMC","lon":106.62999725341797,"lat":10.819999694824219},{"type":2,"id":24744120,"urlname":"gdgvietnam","status":"Active","city":"Ho Chi Minh City","country":"Vietnam","name":"Google Developer Group Vietnam","lon":106.62999725341797,"lat":10.819999694824219},{"type":2,"id":24762830,"urlname":"GDG-Mekong","status":"Active","city":"Can Tho","country":"Vietnam","name":"GDG Mekong","lon":105.77999877929688,"lat":10.029999732971191},{"type":2,"id":33730585,"urlname":"GDG-Adan","status":"Active","city":"San´a","country":"Yemen","name":"GDG Adan","lon":44.209999084472656,"lat":15.380000114440918},{"type":2,"id":24131141,"urlname":"GDGSanaa","status":"Active","city":"San´a","country":"Yemen","name":"GDG Sana'a","lon":44.209999084472656,"lat":15.380000114440918},{"type":2,"id":33604318,"urlname":"GDG-Ndola","status":"Active","city":"Ndola","country":"Zambia","name":"GDG Ndola","lon":28.639999389648438,"lat":-12.970000267028809},{"type":2,"id":24747892,"urlname":"GDG-Harare","status":"Active","city":"Harare","country":"Zimbabwe","name":"GDG Harare","lon":31.049999237060547,"lat":-17.81999969482422}]}